fas_id,name,address,postcode,easting,northing,latitude,longitude,local_authority
1,Please Select a Pub,NA,NULL,426699.000000,321720.000000,57.721560,-1.62513,Please Select a Region
439274,524 BAR & LOUNGE,"524 George Street, Aberdeen",AB25 3XJ,393631.000000,807144.000000,57.155121,-2.106919,Aberdeen City
439311,ABERDEEN INDOOR BOWLING CLUB,"Summerhill Road, Aberdeen",AB15 6EE,390886.000000,806572.000000,57.149927,-2.152272,Aberdeen City
439313,ABERDEEN LADS CLUB,"Dill Road, Tillydrone, Aberdeen",AB24 2XL,392897.000000,809088.000000,57.172573,-2.119108,Aberdeen City
439488,BLACKDOG BAR,"North Donside Road, Bridge Of Don, Aberdeen",AB23 8PA,394263.000000,810086.000000,57.181558,-2.096541,Aberdeen City
439502,BON ACCORD GOLF CLUB,"19 Golf Road, Aberdeen",AB24 5QB,394871.000000,807681.000000,57.159961,-2.086416,Aberdeen City
439532,BRIDGE BAR,"6 Bridge Street, Aberdeen",AB11 6JJ,393939.000000,806005.000000,57.144903,-2.101799,Aberdeen City
439540,BRIGODON,"Tipping Hatter, 739 King Street, Aberdeen",AB24 1XZ,394438.000000,809187.000000,57.173475,-2.093609,Aberdeen City
439637,CHEERZ BAR AND TEAZERS NIGHTCLUB,"Rabbie's Bar, 2-8 Exchange Street, Aberdeen",AB11 6PH,394203.000000,806104.000000,57.145787,-2.097439,Aberdeen City
439733,COVE RANGERS SOCIAL CLUB,"Loirston Road, Cove, Aberdeen",AB12 3NR,395247.000000,801233.000000,57.102043,-2.080075,Aberdeen City
439834,DYCE BOWLING CLUB,"Skene Place, Dyce, Aberdeen",AB21 7AY,388584.000000,812724.000000,57.205147,-2.190585,Aberdeen City
439872,ESPIONAGE,"120 Union Street, Aberdeen",AB10 1JJ,394025.000000,806167.000000,57.146359,-2.100365,Aberdeen City
439927,FOUR MILE HOUSE,"Old Skene Road, Kingswells, Aberdeen",AB15 8QA,387104.000000,806248.000000,57.146925,-2.214761,Aberdeen City
439968,GLENTANAR BAR,"39 Holburn Street, Aberdeen",AB10 6BS,393332.000000,805729.000000,57.142406,-2.111806,Aberdeen City
439969,GLENTANAR BAR,"Glentanar Bar & Lounge, 39 Holburn Street, Aberdeen",AB10 6BS,393332.000000,805729.000000,57.142406,-2.111805,Aberdeen City
439987,GRANITE CITY [Landside],"Aberdeen Airport, Dyce, Aberdeen",AB21 7DU,387806.000000,812209.000000,57.200500,-2.203454,Aberdeen City
440035,HAZLEHEAD GOLF CLUB [Bar only],"Hazlehead, Aberdeen",AB15 8BD,389240.000000,805587.000000,57.141052,-2.179433,Aberdeen City
440066,HOLBURN BAR,"225 Holburn Street, Aberdeen",AB10 6BL,393200.000000,805250.000000,57.138110,-2.11399,Aberdeen City
440186,KRAKATOA,"2 Trinity Quay, Aberdeen",AB11 5AA,394336.000000,806117.000000,57.145905,-2.095241,Aberdeen City
440241,MALONE'S,"90 Shiprow, Aberdeen",AB11 5BZ,394292.000000,806150.000000,57.146210,-2.095969,Aberdeen City
440371,NIGG BAY GOLF CLUB,"St Fitticks Road, Torry, Aberdeen",AB11 9QT,396016.000000,805241.000000,57.138063,-2.067464,Aberdeen City
440377,NO 10 WINEBAR,"10 Queens Terrace, Aberdeen",AB10 1XL,392814.000000,805860.000000,57.143575,-2.120386,Aberdeen City
440385,NORTHERN BOWLING CLUB,"Orchard Road, Aberdeen",AB24 3DP,394190.000000,807882.000000,57.161758,-2.097679,Aberdeen City
440394,NOX,"2 Justice Mill Lane, Aberdeen, Aberdeen City",AB11 6EQ,393456.000000,805715.000000,57.142291,-2.109773,Aberdeen City
440403,OLD BANK BAR,"220 North Deeside Road, Peterculter, Aberdeen",AB14 0UQ,383720.000000,800663.000000,57.096656,-2.270319,Aberdeen City
440405,OLD SCHOOL HOUSE,"Little Belmont Street, Aberdeen",AB10 1JG,394010.000000,806218.000000,57.146808,-2.100615,Aberdeen City
440428,PARAMOUNT,"21-25 Bon Accord Street, Aberdeen",AB11 6EA,393704.000000,805867.000000,57.143660,-2.105679,Aberdeen City
440491,PRINCE OF WALES,"7 St Nicholas Lane, Aberdeen",AB10 1HF,394117.000000,806227.000000,57.146900,-2.098846,Aberdeen City
440524,RAINBOW CASINO,"61 Summer Street, Aberdeen",AB10 1SJ,393473.000000,806106.000000,57.145803,-2.109502,Aberdeen City
440570,ROYAL BRITISH LEGION,"23 Balgownie Road, Bridge Of Don, Aberdeen",AB23 8JN,394492.000000,809598.000000,57.177177,-2.092725,Aberdeen City
440605,SALTOUN ARMS,"69 Frederick Street, Aberdeen",AB24 5HY,394537.000000,806586.000000,57.150121,-2.09193,Aberdeen City
440647,SHORT MILE,"109 Great Western Road, Aberdeen",AB10 6PT,392930.000000,805250.000000,57.138097,-2.118435,Aberdeen City
440721,ST MACHAR BAR,"97 High Street, Aberdeen",AB24 3EN,393899.000000,808433.000000,57.166704,-2.102521,Aberdeen City
440849,THE GRILL,"213 Union Street, Aberdeen",AB11 6BA,393790.000000,806003.000000,57.144883,-2.104245,Aberdeen City
440851,THE HAYLOFT,"9-11 Portland Street, Aberdeen",AB11 6LN,394104.000000,805554.000000,57.140854,-2.099062,Aberdeen City
440853,THE HOWFF,"365 Union Street, Aberdeen",AB11 6BT,393587.000000,805876.000000,57.143739,-2.107613,Aberdeen City
440870,THE MITHER TAP,"28-32 John Street, Aberdeen",AB25 1BT,393931.000000,806747.000000,57.151559,-2.10195,Aberdeen City
440881,THE STAG,"6 Crown Street, Aberdeen, Aberdeen City",AB11 6HB,393813.000000,805979.000000,57.144659,-2.103881,Aberdeen City
440889,THE TUNNELS,"Carnegie's Brae, Aberdeen",AB10 1BF,390570.000000,807198.000000,57.155548,-2.157516,Aberdeen City
440947,UNDER THE HAMMER,"11 North Silver Street, Aberdeen",AB10 1RJ,393668.000000,806234.000000,57.146939,-2.106267,Aberdeen City
440955,VICTORIA BAR,"1-5 Menzies Road, Torry, Aberdeen",AB11 9DS,394737.000000,805223.000000,57.137879,-2.088579,Aberdeen City
441254,Brucklay Arms,"72 Main Street, New Deer, Aberdeenshire",AB53 6SY,388403.000000,847173.000000,57.514586,-2.195237,Aberdeenshire
441259,Buchan Indoor Bowling Club,"South Street, Mintlaw, Aberdeenshire",AB42 5EL,400053.000000,848104.000000,57.523100,-2.000775,Aberdeenshire
441261,BUCHANHAVEN HEARTS F.C.,"17 Victoria Road, Peterhead, Aberdeenshire",AB42 1UB,413007.000000,846709.000000,57.510386,-1.78457,Aberdeenshire
441429,Croft Inn,"Boyndlie, Fraserburgh, Aberdeenshire",AB43 7LS,390306.000000,861315.000000,57.641659,-2.164043,Aberdeenshire
441469,Dee Jays Nightclub,"Denmark Street, Fraserburgh, Aberdeenshire",AB43 9EY,399475.000000,867242.000000,57.694995,-2.010459,Aberdeenshire
441480,Deja Vu Nightclub,"28 Queen Street, Peterhead, Aberdeenshire",AB42 1TS,413328.000000,846267.000000,57.506407,-1.77922,Aberdeenshire
441572,Ex-Servicemen's Club,"59 Gordon Street, Huntly, Aberdeenshire",AB54 8ES,352734.000000,839684.000000,57.444996,-2.789134,Aberdeenshire
441642,Gala Clubs,"63 Marischal Street, Peterhead, Aberdeenshire",AB42 1PR,413228.000000,846113.000000,57.505026,-1.780897,Aberdeenshire
441651,Garlogie Inn,"Garlogie, Westhill, Aberdeenshire",AB32 6RX,378977.000000,805433.000000,57.139311,-2.348998,Aberdeenshire
441763,Huntly Football Club,"East Park Street, Huntly, Aberdeenshire",AB54 8JE,353145.000000,840058.000000,57.448398,-2.782359,Aberdeenshire
441765,Huntly Golf Club,"Cooper Park, Huntly, Aberdeenshire",AB54 4SH,353267.000000,840837.000000,57.455407,-2.780475,Aberdeenshire
442044,McDonald Golf Club,"Hospital Road, Ellon, Aberdeenshire",AB41 9AW,395057.000000,831085.000000,57.370197,-2.083836,Aberdeenshire
442161,Myrus Golf Centre,"Duff Street, Macduff, Aberdeenshire",AB44 1RG,371125.000000,863256.000000,57.658268,-2.485556,Aberdeenshire
442195,Newmachar Golf Club,"Swailend, Newmachar, Aberdeenshire",AB21 7UU,354105.000000,817423.000000,57.245193,-2.762135,Aberdeenshire
442261,PETERHEAD O.A.P.SOCIAL CLUB.,"23 Windmill Street, Peterhead, Aberdeenshire",AB42 1LH,413367.000000,846312.000000,57.506810,-1.778566,Aberdeenshire
442315,Quoiters Lounge Bar,"Skateraw Road, Newtonhill, Aberdeenshire",AB39 3PT,391194.000000,793412.000000,57.031725,-2.146696,Aberdeenshire
442361,Rocksley Inn,"Stirling Village, Boddam, Aberdeenshire",AB42 3AP,412752.000000,842224.000000,57.470106,-1.789057,Aberdeenshire
442504,Stonehaven Indoor Bowling Club,"Cowie, Stonehaven, Aberdeenshire",AB39 2RD,387595.000000,786387.000000,56.968534,-2.205656,Aberdeenshire
442652,The Cross Keys,"19-27 Chapel Street, Peterhead, Aberdeenshire",AB42 1TH,413349.000000,846168.000000,57.505517,-1.778891,Aberdeenshire
442719,The Shore Inn,"Church Street, Portsoy, Aberdeenshire",AB45 2QR,358997.000000,866158.000000,57.683389,-2.689278,Aberdeenshire
442769,Turriff Golf Club,"Rosehall, Turriff, Aberdeenshire",AB53 4HD,371072.000000,849522.000000,57.534896,-2.484798,Aberdeenshire
225017,Albion Inn,"13 Fishersgate Terrace, Southwick, West Sussex",BN41 1PH,525568.000000,105006.000000,50.830980,-0.218337,Adur
225065,Champion House Social Club,"9 Southdown Road, Southwick, West Sussex",BN42 4FT,524309.000000,105505.000000,50.835736,-0.236036,Adur
225111,Duke Of Wellington,"368 Brighton Road, Shoreham-By-Sea, West Sussex",BN43 6RE,522017.000000,105059.000000,50.832215,-0.268718,Adur
225299,Shoreham Sailing Club,"223 Harbour Way, Shoreham-By-Sea, West Sussex",BN43 5HZ,522969.000000,104817.000000,50.829838,-0.255287,Adur
225317,Southwick Sports and Social Club,"11 The Twitten, Southwick, West Sussex",BN42 4DB,524278.000000,105285.000000,50.833766,-0.236551,Adur
169054,Aspatria R U F C Ltd,"Aspatria Rugby Union Football Club, Station Road, Aspatria, Wigton",CA7 2AJ,314388.000000,541475.000000,54.760876,-3.331969,Allerdale
169060,Bank Tavern,"The Bank Tavern, 45-47 Main Street, Keswick, Cumbria",CA12 5DS,326520.000000,523515.000000,54.601441,-3.138951,Allerdale
169179,Cockermouth Golf Club,"Dubwath, Cockermouth, Cumbria",CA13 9SG,316775.000000,530678.000000,54.664284,-3.291797,Allerdale
169348,Harris Park Bowling Club,"Bowling Club, Harris Park, Fern Bank, Cockermouth",CA13 0DF,311945.000000,530248.000000,54.659599,-3.366526,Allerdale
169418,JJ's Club,"31-33 New South Watt Street, Workington, Cumbria",CA14 2RZ,299816.000000,528701.000000,54.643426,-3.553944,Allerdale
169612,Paduas,"41 Washington Street, Workington, Cumbria",CA14 3AH,300498.000000,528549.000000,54.642204,-3.543328,Allerdale
169669,Royal Air Force Club,"Petteril Street, Silloth, Wigton, Cumbria",CA7 4DH,311106.000000,553852.000000,54.871506,-3.386762,Allerdale
169688,Seaton Rugby Club,"High Seaton Village, Seaton, Workington, Cumbria",CA14 1NP,301847.000000,530804.000000,54.662726,-3.523191,Allerdale
169718,Snooty Fox,"Snooty Fox Country Inn, Uldale Village, Uldale, Wigton",CA7 1HA,324972.000000,536986.000000,54.722248,-3.166371,Allerdale
169805,The Brewery House Hotel,"Brewery House Hotel, 16 Main Road, High Harrington, Workington",CA14 5PF,299576.000000,525527.000000,54.614883,-3.556557,Allerdale
169894,The Letters Inn,"Letters Inn, Outgang Road, Aspatria, Wigton",CA7 3HW,314374.000000,541900.000000,54.764700,-3.332312,Allerdale
169912,The Old Mill Inn,"Old Mill Inn, Dearham, Maryport, Cumbria",CA15 7JP,307782.000000,536007.000000,54.710600,-3.432845,Allerdale
169959,The Swinside Inn,"Swinside Inn, Stair To Junction With Portinscale To Grange Near Swinside, Newlands, Keswick",CA12 5UE,324565.000000,521131.000000,54.579742,-3.168593,Allerdale
169961,The Travellers Rest,"Travellers Rest, 63 High Street, Workington, Cumbria",CA14 4EU,300993.000000,527789.000000,54.635465,-3.535404,Allerdale
169963,The Twa Dogs Inn,"Twa Dogs Inn, Penrith Road, Keswick, Cumbria",CA12 4JU,327548.000000,523836.000000,54.604465,-3.12312,Allerdale
169968,The Well,"8-14 Upper Jane Street, Workington, Cumbria",CA14 4AU,300537.000000,528555.000000,54.642257,-3.542726,Allerdale
169971,The White Heather Hotel,"White Heather Hotel, Kirkbride To Oulton From Kirkbride, Kirkbride, Wigton",CA7 5HW,321975.000000,555017.000000,54.883789,-3.217752,Allerdale
169973,The Wild Duck,"Wild Duck Inn, Branthwaite, Workington, Cumbria",CA14 4SZ,305754.000000,524895.000000,54.610387,-3.460738,Allerdale
170041,Wigton RUFC,"Lowmoor Road, Wigton, Cumbria",CA7 9QT,326425.000000,547914.000000,54.820647,-3.146576,Allerdale
170062,Workington A F C Ltd,"Borough Park, New Bridge Road, Workington, Cumbria",CA14 2DT,299968.000000,529289.000000,54.648747,-3.551791,Allerdale
45572,Amber Valley Rugby Club,Lower Somercotes Somercotes Alfreton Derbyshire,DE55 4NQ,443141.000000,353303.000000,53.075222,-1.357511,Amber Valley
45584,Anvil Club,Anvil Club Casson Street Ironville Derbyshire,NG16 5NN,443510.000000,351860.000000,53.062222,-1.352198,Amber Valley
45635,Black Boy Inn,Old Road Heage Belper Derbyshire,DE56 2BN,436932.000000,349924.000000,53.045314,-1.45057,Amber Valley
45676,Canal Inn,30 Bullbridge Hill Ambergate  Belper Derbyshire,DE56 2EW,435795.000000,352318.000000,53.066910,-1.467264,Amber Valley
45754,Crompton Arms,17 High Street Ripley Derbyshire,DE5 3AA,439905.000000,350407.000000,53.049442,-1.406168,Amber Valley
45775,Derbyshire Catering The Nailers - Belper Meadows Sports Club,Belper Meadows Sports Club Bridge Street Belper Derbyshire,DE56 1BA,434590.000000,347787.000000,53.026261,-1.48573,Amber Valley
45804,Duffield Squash And Tennis Club,23 Town Street Duffield Belper Derbyshire,DE56 4EH,434461.000000,343414.000000,52.986961,-1.488119,Amber Valley
45805,Durham Ox,38 Street Lane Denby Ripley Derbyshire,DE5 8NE,438541.000000,348477.000000,53.032185,-1.426744,Amber Valley
45859,George Inn,20 Lowes Hill Ripley Derbyshire,DE5 3DW,439787.000000,351237.000000,53.056911,-1.407826,Amber Valley
45890,Hayes Conference Centre,Hayes Lane Swanwick Alfreton Derbyshire,DE55 1AT,440957.000000,352939.000000,53.072122,-1.390154,Amber Valley
45944,Inn The Middle,125 Station Road Langley Mill Heanor Derbyshire,NG16 4DU,444734.000000,346988.000000,53.018329,-1.334609,Amber Valley
45972,Kedleston Park Golf Club,Kedleston Road Quarndon Derbyshire,DE22 5JD,432336.000000,340873.000000,52.964252,-1.520024,Amber Valley
45981,Kilburn Social Club,Chapel Street Kilburn Belper Derbyshire,DE56 0NR,438242.000000,345788.000000,53.008045,-1.43152,Amber Valley
45998,Langley Mill United Cricket Club,Langley Mill United Cricket Club Station Road Langley Mill Derbyshire,NG16 4BE,444736.000000,346753.000000,53.016217,-1.334612,Amber Valley
46053,Marehay Miners Welfare,Derby Road Ripley Derbyshire,DE5 8JN,439974.000000,348614.000000,53.033320,-1.40536,Amber Valley
46103,Nags Head Public House,56 Butterley Hill Ripley Derbyshire,DE5 3LT,439955.000000,350896.000000,53.053834,-1.405361,Amber Valley
46144,Out Of Town Public House,101 Butterley Hill Ripley Derbyshire,DE5 3LW,440020.000000,351071.000000,53.055402,-1.40437,Amber Valley
46196,Red Lion,2 Red Lion Square Heanor Derbyshire,DE75 7QG,443136.000000,346469.000000,53.013804,-1.358497,Amber Valley
46198,Red Lion Inn,150 Greenhill Lane Riddings Alfreton Derbyshire,DE55 4EX,442298.000000,352941.000000,53.072036,-1.37014,Amber Valley
46205,Riddings Cricket Club,Riddings Cricket Club Social Club West Street Riddings Alfreton Derbyshire,DE55 4EW,442453.000000,352788.000000,53.070648,-1.367847,Amber Valley
46242,Seven Stars,26 Church Street Riddings Alfreton Derbyshire,DE55 4BX,443062.000000,352710.000000,53.069898,-1.358769,Amber Valley
46263,South Wingfield Miners Welfare,Wingfield Sport And Social Club 43 High Road South Wingfield Alfreton Derbyshire,DE55 7LX,437652.000000,355734.000000,53.097478,-1.439154,Amber Valley
46338,The Codnor Inn,1 Jessop Street Codnor Ripley Derbyshire,DE5 9RN,441867.000000,349425.000000,53.040457,-1.377029,Amber Valley
46355,The Excavator,Buckland Hollow Ambergate Belper Derbyshire,DE56 2HS,437500.000000,351784.000000,53.061993,-1.441882,Amber Valley
46356,The Family Tree,Derby Road Whatstandwell Matlock Derbyshire,DE4 5HG,433162.000000,354372.000000,53.085551,-1.506345,Amber Valley
46372,The Jolly Colliers,122 Derby Road Heanor Derbyshire,DE75 7QL,442761.000000,346290.000000,53.012216,-1.364095,Amber Valley
46375,The King Of Prussia,4 Market Place Heanor Derbyshire,DE75 7AA,443498.000000,346470.000000,53.013784,-1.353102,Amber Valley
46394,The Red Lion,Market Place Ripley Derbyshire,DE5 3BR,439857.000000,350509.000000,53.050363,-1.406871,Amber Valley
46409,The Town Street Tap,17 Town Street Duffield Belper Derbyshire,DE56 4EH,434463.000000,343422.000000,52.987042,-1.488088,Amber Valley
46415,The Windmill Inn,215 Park Road Heage Belper Derbyshire,DE56 2AB,437137.000000,349579.000000,53.042198,-1.447552,Amber Valley
46416,Thorn Tree,21 Chesterfield Road Belper Derbyshire,DE56 1FF,435228.000000,348018.000000,53.028287,-1.476194,Amber Valley
46469,White Lion,12 - 14 Market Place Ripley Derbyshire,DE5 3BR,439857.000000,350509.000000,53.050363,-1.406871,Amber Valley
442887,Anchor Bar,"70-74 Ferry Street, Montrose",DD10 8BY,371570.000000,757232.000000,56.705920,-2.465949,Angus
442906,Arbroath Indoor Bowling Club,"The Stadium, Cairnie Road, Arbroath",DD11 3DY,363246.000000,741594.000000,56.564857,-2.599659,Angus
442942,Birkhill Bowling Club.,"Coupar Angus Road, Birkhill, Dundee",DD2 5QE,334783.000000,734178.000000,56.495147,-3.060865,Angus
442954,Brechin Arms,"44 St David Street, Brechin",DD9 6EQ,359634.000000,760253.000000,56.732176,-2.661356,Angus
443052,Craws Nest,"The Craws Nest, 71 Ravensby Park Gardens, Carnoustie",DD7 7NY,354352.000000,734515.000000,56.500483,-2.74312,Angus
443189,Harrys Bar,"2 Hume Street, Montrose",DD10 8JD,371391.000000,757861.000000,56.711559,-2.468926,Angus
443240,Kerrymore Tavern,"66 Glamis Road, Kirriemuir",DD8 5DD,338533.000000,753399.000000,56.668313,-3.004538,Angus
443267,Ladies Golf Club,"12 Links Parade, Carnoustie",DD7 7JF,355832.000000,734199.000000,56.497777,-2.719027,Angus
443301,Lochlands Cricket Club,"Keptie Road, Arbroath",DD11 3EW,362860.000000,741487.000000,56.563874,-2.605924,Angus
443304,Lochside Bar,"Lochside Bar, 84-86 North Esk Road, Montrose",DD10 8TG,371607.000000,759028.000000,56.722056,-2.465544,Angus
443313,Lodge the Bruce No 593,"52 Gardyne Street, Friockheim, Arbroath",DD11 4SP,359659.000000,749714.000000,56.637505,-2.659291,Angus
443394,Newtyle Legion Hall,"33 Belmont Street, Newtyle, Blairgowrie",PH12 8UB,329879.000000,741323.000000,56.558618,-3.142429,Angus
443401,Northern Vaults,"Northern Vaults, 9 North Esk Road, Montrose",DD10 8TJ,371495.000000,758452.000000,56.716866,-2.467309,Angus
443457,Railway Inn,"Railway Inn, 1 Gardyne Street, Friockheim, Arbroath",DD11 4SN,359220.000000,749677.000000,56.637135,-2.666442,Angus
443477,Royal Arch Bar,"32 High Street, Montrose",DD10 8JL,371413.000000,758049.000000,56.713249,-2.468588,Angus
443478,Royal British Legion,"2a Bank Street, Brechin",DD9 6AX,359974.000000,760309.000000,56.732708,-2.655809,Angus
443569,Strathmore Rugby Club,"Inchmacoble Park, Forfar",DD8 1RL,344562.000000,750389.000000,56.642021,-2.905532,Angus
443788,Argyll Bar,67 East Clyde Street Helensburgh Argyll And Bute G84 7PF,G84 7PF,229878.000000,682198.000000,56.002456,-4.729782,Argyll and Bute
443895,Cardross Golf Club - The Kitchen,Cardross Golf Club Main Road Cardross Dumbarton Argyll And Bute G82 5LB,G82 5LB,234859.000000,677355.000000,55.960731,-4.647027,Argyll and Bute
444000,Dunoon Argyll Bowling Club,Dunoon Argyll Bowling Club 66 Mary Street Dunoon Argyll And Bute PA23 7EG,PA23 7EG,216842.000000,676688.000000,55.948213,-4.934788,Argyll and Bute
444035,Gamba's Bar,72 Victoria Street Rothesay Isle Of Bute Argyll And Bute PA20 0AP,PA20 0AP,208701.000000,664732.000000,55.837772,-5.056507,Argyll and Bute
444212,Macs Bar,14 Castlehill Street Rothesay Isle Of Bute Argyll And Bute PA20 0DA,PA20 0DA,208770.000000,664662.000000,55.837171,-5.055358,Argyll and Bute
444336,Royal Bar,8 West Clyde Street Helensburgh Argyll And Bute G84 8SQ,G84 8SQ,229578.000000,682293.000000,56.003211,-4.734647,Argyll and Bute
444367,Shore House Inn,Shore House Inn Lochgoilhead Cairndow Argyll And Bute PA24 8AA,PA24 8AA,219874.000000,701523.000000,56.172198,-4.903012,Argyll and Bute
444404,Strone Inn,Strone Inn Shore Road Strone Dunoon Argyll And Bute PA23 8TA,PA23 8TA,218851.000000,680673.000000,55.984741,-4.905343,Argyll and Bute
444510,The Old Clubhouse,The Old Clubhouse Machrihanish Campbeltown Argyll And Bute PA28 6PT,PA28 6PT,164434.000000,620665.000000,55.423094,-5.724172,Argyll and Bute
444522,The Port Inn,44 Marine Road Port Bannatyne Isle Of Bute Argyll And Bute PA20 0LW,PA20 0LW,207190.000000,667255.000000,55.859807,-5.08239,Argyll and Bute
444579,Victoria Bar,41 Hillfoot Street Dunoon Argyll And Bute PA23 7DR,PA23 7DR,217306.000000,676558.000000,55.947224,-4.927265,Argyll and Bute
225446,ANGMERING SPORTS & SOCIAL CLUB,"SPORTS PAVILION & PREMISES, DECOY DRIVE, ANGMERING LITTLEHAMPTON",BN16 4DN,506655.000000,105101.000000,50.835615,-0.486774,Arun
225531,BLACK HORSE INN,"BLACK HORSE INN, 78 BINSTED LANE, BINSTED ARUNDEL",BN18 0AL,498292.000000,107023.000000,50.854381,-0.604982,Arun
225561,BRITISH LEGION CLUB,"BRITISH LEGION CLUB, THE STREET, EAST PRESTON LITTLEHAMPTON",BN16 1JL,506984.000000,102353.000000,50.810861,-0.482904,Arun
225675,CRAZY CRAB CABIN,"THE PAGHAM CLUB, BEACH ROAD, PAGHAM BOGNOR REGIS",PO21 4SX,489112.000000,97322.000000,50.768651,-0.737702,Arun
225691,D U CATERERS,"MASONIC HALL, CANADA GROVE, BOGNOR REGIS",PO21 1DW,493307.000000,99270.000000,50.785506,-0.677737,Arun
225706,DEW DROP INN,"DEW DROP INN, 94-96 WICK STREET, WICK LITTLEHAMPTON",BN17 7JS,502671.000000,103157.000000,50.818859,-0.54386,Arun
225839,HOTSHOTS  BUTLINS,"BUTLINS, UPPER BOGNOR ROAD, BOGNOR REGIS",PO21 1JJ,494526.000000,99471.000000,50.787124,-0.660398,Arun
225841,HTS CATERING,"THE STATION PUBLIC HOUSE, 26 STATION ROAD, BOGNOR REGIS",PO21 1QF,493424.000000,99347.000000,50.786179,-0.676072,Arun
225925,LITTLEHAMPTON & DISTRICT ANGLING CLUB,"L'TON  & DIS  ANGLING CLUB, RNLI LIFEBOAT STATION, SURREY STREET, LITTLEHAMPTON",BN17 5BG,502694.000000,102088.000000,50.809254,-0.543833,Arun
225928,LITTLEHAMPTON CONSTITUTIONAL CLUB,"31 CHURCH STREET, LITTLEHAMPTON",BN17 5EN,503115.000000,102124.000000,50.809503,-0.537849,Arun
226026,non trading sports club,"NORFOLK BOWLING CLUB, CAFE NORFOLK PLEASURE GROUNDS, SEAFRONT, LITTLEHAMPTON",BN17 5LL,502879.000000,101480.000000,50.803764,-0.541378,Arun
226110,REDS,"BUTLINS, UPPER BOGNOR REOAD, BOGNOR REGIS",PO21 1JJ,494526.000000,99471.000000,50.787124,-0.660398,Arun
226114,Regis Burger,"1B LINDEN ROAD, BOGNOR REGIS",PO21 2AL,493324.000000,99384.000000,50.786528,-0.677481,Arun
226175,SEASONS,"FOOTBALL GROUND, NYEWOOD LANE, BOGNOR REGIS",PO21 2TY,492616.000000,99354.000000,50.786371,-0.687516,Arun
226300,THE BLACK HORSE,"BLACK HORSE INN, CLIMPING STREET, CLIMPING LITTLEHAMPTON",BN17 5RL,500238.000000,101288.000000,50.802492,-0.578897,Arun
226306,THE CABIN,"THE CABIN CLUB, 167/169 ELMER ROAD, MIDDLETON-ON-SEA BOGNOR REGIS",PO22 6JA,498535.000000,100074.000000,50.791870,-0.603382,Arun
226314,THE CLAREMONT INN,"THE CLAREMONT, SCOTT STREET, BOGNOR REGIS",PO21 1UH,493146.000000,98923.000000,50.782421,-0.680108,Arun
226343,THE GEORGE AT BURPHAM,"THE GEORGE AT BURPHAM, THE STREET, BURPHAM ARUNDEL",BN18 9RR,503967.000000,108911.000000,50.870362,-0.523852,Arun
226361,THE LAMB,"THE LAMB INN, STEYNE STREET, BOGNOR REGIS",PO21 1TJ,493294.000000,99046.000000,50.783503,-0.677992,Arun
226396,THE RICHMOND ARMS,"RICHMOND ARMS, 224 LONDON ROAD, BOGNOR REGIS",PO21 1AU,493617.000000,99874.000000,50.790877,-0.673202,Arun
226415,THE SWAN HOTEL,"THE SWAN HOTEL, 27/29 HIGH STREET, ARUNDEL",BN18 9AG,501874.000000,107072.000000,50.854203,-0.554083,Arun
226432,The Windmill Public House,"WINDMILL INN, 42 MILL LANE, RUSTINGTON LITTLEHAMPTON",BN16 3JN,505633.000000,103012.000000,50.817032,-0.501869,Arun
46603,Blue Bell,"Blue Bell Inn, Mansfield Road",NG17 4HG,450577.000000,359721.000000,53.132249,-1.245519,Ashfield
46655,Cart and Horse,"Cart And Horse Inn, 94 Station Road",NG17 5HF,450863.000000,358419.000000,53.120528,-1.24145,Ashfield
46703,Coronation Club,"Coronation Club, Bannerman Road",NG17 8DW,449719.000000,356351.000000,53.102048,-1.258862,Ashfield
46748,Dixies Arms,"Dixies Arms, Lower Bagthorpe",NG16 5HF,446887.000000,351527.000000,53.058944,-1.301858,Ashfield
46749,Dog and Quayle,75a Mansfield Road,NG16 5FF,447639.000000,350860.000000,53.052882,-1.290737,Ashfield
46794,Forest Tavern,"Forest Tavern, 96 Forest Road",NG17 3BB,450133.000000,360208.000000,53.136668,-1.252078,Ashfield
46795,Forest Tavern,"Forest Tavern, 24 Skegby Road",NG17 9JD,449792.000000,353643.000000,53.077701,-1.258191,Ashfield
46800,Fox and Crown,"Fox And Crown, 116 Dalestorth Road",NG17 3AA,450409.000000,360215.000000,53.136714,-1.247952,Ashfield
46831,H2O Bar & Lounge,76-78 High Street,NG15 7AX,453487.000000,349315.000000,53.038452,-1.203757,Ashfield
46942,Kirkby Cross Snooker Hall,21 Chapel Street,NG17 8JY,449181.000000,356193.000000,53.100677,-1.266921,Ashfield
46985,Mapplewells Inn,"Mapplewells Inn, Alfreton Road",NG17 1HU,448039.000000,358270.000000,53.119450,-1.283666,Ashfield
47038,New Cross Public House,"New Cross Public House, 167 Outram Street",NG17 4FU,449968.000000,359495.000000,53.130275,-1.254655,Ashfield
47092,Polly Bowls Club CIC,"Pretty Polly Ltd, Unwin Road",NG17 4JJ,450421.000000,359746.000000,53.132488,-1.247846,Ashfield
47118,Red Lion,"Red Lion, 134 Church Lane",NG16 5HD,447359.000000,351399.000000,53.057752,-1.294835,Ashfield
47172,Shepherds Rest,"Shepherds Rest, Lower Bagthorpe",NG16 5HF,446887.000000,351527.000000,53.058944,-1.301858,Ashfield
47200,Staff of Life,"West End, Sutton-in-Ashfield",NG17 1FB,449044.000000,358707.000000,53.123277,-1.268584,Ashfield
47220,Sutton In Ashfield Sailing Club,"Sutton In Ashfield Sailing Clu, Coxmoor Road",NG17 4NB,450641.000000,359330.000000,53.128728,-1.244624,Ashfield
47277,The Junction,"The Junction, Newark Road",NG17 5JP,451259.000000,358497.000000,53.121200,-1.235521,Ashfield
47307,The Summit Centre,"Summit Centre, Pavilion Road",NG17 7LL,450660.000000,356664.000000,53.104782,-1.24476,Ashfield
226577,Ashford Club,"First Floor, 2-8 High Street, Ashford, Kent",TN24 8TD,601166.000000,142821.000000,51.149287,0.874887,Ashford
226638,Black Horse Inn,"The Street, Pluckley, Kent",TN27 0QS,592576.000000,145385.000000,51.175260,0.753595,Ashford
226858,Dukes Head,"The Street, Hamstreet, Kent",TN26 2HE,600142.000000,133358.000000,51.064660,0.855022,Ashford
226918,George Inn,"The Street, Molash, Kent",CT4 8HE,602740.000000,151764.000000,51.229044,0.902406,Ashford
226955,Hare & Hounds Public House,"Hare and Hounds, Maidstone Road, Ashford, Kent",TN25 4NR,599254.000000,144693.000000,51.166767,0.848622,Ashford
227411,The Black Lion,"15 The Street, Appledore, Kent",TN26 2BU,595693.000000,129346.000000,51.030159,0.789442,Ashford
227422,The Compasses Inn,"Sole Street, Crundale, Kent",CT4 7ES,609659.000000,149312.000000,51.204520,0.999929,Ashford
227458,The Hoodeners Horse,"The Street, Great Chart, Kent",TN23 3AN,598222.000000,142137.000000,51.144171,0.832474,Ashford
227472,The Old Mill,"Canterbury Road, Kennington, Kent",TN25 4DZ,602980.000000,145395.000000,51.171773,0.902226,Ashford
227484,The Riverside Inn,"Rugby Gardens, Ashford, Kent",TN23 7TG,601184.000000,141707.000000,51.139276,0.874522,Ashford
227500,The Wheel Inn,"The Street, Westwell, Kent",TN25 4LQ,598935.000000,147324.000000,51.190499,0.84552,Ashford
227501,The White Horse,"The Square, Chilham, Kent",CT4 8BY,606848.000000,153618.000000,51.244220,0.96223,Ashford
227542,Walnut Tree,"Walnut Tree Inn, Forge Hill, Aldington, Kent",TN25 7DT,606206.000000,136439.000000,51.090193,0.943203,Ashford
227953,Energie Liscombe Park Health Club,"Liscombe Park, Soulbury, Buckinghamshire",LU7 0JL,488873.000000,225015.000000,51.916582,-0.709247,Aylesbury Vale
228001,Great Brickhill Cricket Club,"Recreation Ground, Rotten Row, Great Brickhill, Buckinghamshire",MK17 9BA,490370.000000,230587.000000,51.966425,-0.686026,Aylesbury Vale
228044,Hazells Bowls Club,"Shakespeare Way, Aylesbury, Buckinghamshire",HP20 1JF,483259.000000,213775.000000,51.816413,-0.793557,Aylesbury Vale
228067,Honey Bee,"Trenchard Street, Coldharbour, Fairford Leys, Buckinghamshire",HP19 7AA,480096.000000,213891.000000,51.817908,-0.839406,Aylesbury Vale
228220,Mendoza,"30 High Street, Aylesbury, Buckinghamshire",HP20 1SF,482105.000000,213806.000000,51.816862,-0.810287,Aylesbury Vale
228261,Niche,"1A-3A Market Square, Aylesbury, Buckinghamshire",HP20 1TA,481906.000000,213780.000000,51.816648,-0.813179,Aylesbury Vale
228440,Slade Indoor Bowls Centre,"Yonder Slade, Buckingham",MK18 1RZ,469977.000000,232607.000000,51.987520,-0.982387,Aylesbury Vale
228550,The Bell,"The Green, Chearsley, Buckinghamshire",HP18 0DJ,471747.000000,210578.000000,51.789258,-0.961191,Aylesbury Vale
228564,The Bull,"5 Risborough Road, Stoke Mandeville, Buckinghamshire",HP22 5UP,483583.000000,210170.000000,51.783959,-0.789726,Aylesbury Vale
228567,The Carpenters Arms,"Horton Road, Slapton, Buckinghamshire",LU7 9DB,493316.000000,220603.000000,51.876199,-0.645861,Aylesbury Vale
228580,The Clifden Arms,"75 Clifden Road, Worminghall, Buckinghamshire",HP18 9JR,463993.000000,208264.000000,51.769413,-1.074034,Aylesbury Vale
228630,The Green Man,"22 Main Street, Mursley, Buckinghamshire",MK17 0RT,481703.000000,228731.000000,51.951081,-0.812588,Aylesbury Vale
228638,The Hundred Of Ashendon,"Lower End, Ashendon, Buckinghamshire",HP18 0HE,470426.000000,214355.000000,51.823389,-0.979574,Aylesbury Vale
228642,The Kennedy,"Meadowcroft, Aylesbury, Buckinghamshire",HP19 9HQ,482173.000000,216481.000000,51.840897,-0.808665,Aylesbury Vale
228650,The Lion,"70 High Street, Waddesdon, Buckinghamshire",HP18 0JD,474224.000000,216906.000000,51.845830,-0.923932,Aylesbury Vale
228667,The New Inn,"18 Bridge Street, Buckingham, Buckinghamshire",MK18 1AF,469719.000000,233763.000000,51.997935,-0.985909,Aylesbury Vale
228670,The Oak,"119 Green End Street, Aston Clinton, Buckinghamshire",HP22 5EU,487891.000000,212478.000000,51.804046,-0.726706,Aylesbury Vale
228676,The Old Swan,"58 High Street, Cheddington, Buckinghamshire",LU7 0RQ,492316.000000,217166.000000,51.845472,-0.6613,Aylesbury Vale
228677,The Old Thatched Inn,"Main Street, Adstock, Buckinghamshire",MK18 2JN,473611.000000,230225.000000,51.965630,-0.929988,Aylesbury Vale
228684,The Partridge Arms,"50 Green End Street, Aston Clinton, Buckinghamshire",HP22 5EX,488008.000000,212324.000000,51.802653,-0.725048,Aylesbury Vale
228691,The Phoenix,"11 Queen Catherine Road, Steeple Claydon, Buckinghamshire",MK18 2PZ,470196.000000,226870.000000,51.935920,-0.980369,Aylesbury Vale
228693,The Plough P.H.,"Church Street, Marsh Gibbon, Buckinghamshire",OX27 0HQ,464756.000000,223108.000000,51.902760,-1.060191,Aylesbury Vale
228703,The Railway Club,"California, Aylesbury, Buckinghamshire",HP21 8JU,481650.000000,213321.000000,51.812561,-0.817,Aylesbury Vale
228707,The Red Lion Dagnall,"21 Main Road North, Dagnall, Buckinghamshire",HP4 1QZ,498959.000000,216398.000000,51.837442,-0.565118,Aylesbury Vale
228709,The Red Lion P.H.,"68 Aylesbury Road, Bierton, Buckinghamshire",HP22 5BU,483414.000000,215152.000000,51.828759,-0.790978,Aylesbury Vale
228719,The Rose & Crown,"The Green, Wingrave, Buckinghamshire",HP22 4PD,487023.000000,219032.000000,51.863094,-0.737646,Aylesbury Vale
228734,The Swan,"1 Winslow Road, Great Horwood, Buckinghamshire",MK17 0QN,476944.000000,230996.000000,51.972110,-0.881313,Aylesbury Vale
228740,The Three Horseshoes,"10 Main Road, Drayton Parslow, Buckinghamshire",MK17 0JS,484121.000000,228667.000000,51.950146,-0.777429,Aylesbury Vale
228747,The Unicorn,"High Street, Cublington, Buckinghamshire",LU7 0LQ,483957.000000,222197.000000,51.892022,-0.78139,Aylesbury Vale
228750,The Village Gate,"225 Aylesbury Road, Wendover, Buckinghamshire",HP22 6BA,486232.000000,209011.000000,51.773140,-0.751621,Aylesbury Vale
228761,The White Swan,"3 Walton Street, Aylesbury, Buckinghamshire",HP20 1TZ,482064.000000,213572.000000,51.814756,-0.810937,Aylesbury Vale
64,Black Horse,"Lower Street, Stratford St Mary, COLCHESTER, Essex",CO7 6JS,604270.000000,233920.000000,51.966211,0.972091,Babergh
307,Hare and Hounds,"Harrow Street, Leavenheath, COLCHESTER, Essex",CO6 4PW,595658.000000,237394.000000,52.000502,0.848865,Babergh
562,Queens Head,"The Street, Layham, IPSWICH, Suffolk",IP7 5LZ,602914.000000,240108.000000,52.022268,0.95604,Babergh
574,Rose and Crown,"The Street, Elmsett, IPSWICH, Suffolk",IP7 6PA,605723.000000,246692.000000,52.080338,1.00088,Babergh
718,The Case Is Altered,"Capel Road, Bentley, IPSWICH, Suffolk",IP9 2DW,610900.000000,236865.000000,51.990168,1.070262,Babergh
739,The Fleece PH,"The Fleece, 8-10 Broad Street, Boxford, SUDBURY",CO10 5DX,596289.000000,240564.000000,52.028753,0.859875,Babergh
749,The Greyhound,"High Street, Lavenham, SUDBURY, Suffolk",CO10 9PZ,591533.000000,249254.000000,52.108440,0.795509,Babergh
792,The Swan,"Swan Inn, The Street, Holbrook, IPSWICH",IP9 2PZ,616845.000000,236583.000000,51.985358,1.156531,Babergh
824,United Services Club,"White Horse Road, East Bergholt, COLCHESTER, Essex",CO7 6TU,608264.000000,234312.000000,51.968250,1.030381,Babergh
4406,Twinstead Cricket Club,"30 Spire Chase, Sudbury, Suffolk",CO10 1PZ,588451.000000,242638.000000,52.050076,0.746907,Babergh
83481,Beacon Tree,"Beacon Tree, 945 Green Lane, Dagenham",RM8 1DJ,548489.000000,186902.000000,51.561457,0.140758,Barking and Dagenham
83632,Dagenham Trades Hall,"Dagenham Trades Hall, Charlotte Road, Dagenham",RM10 8TD,549728.000000,184662.000000,51.541003,0.157666,Barking and Dagenham
84247,Thatched House,"The Thatched House Ph, Ripple Road, Barking",IG11 9PG,546139.000000,183715.000000,51.533425,0.105558,Barking and Dagenham
84283,The Spotted Dog,"13-15 Longbridge Road, Barking",IG11 8TN,544481.000000,184425.000000,51.540240,0.081962,Barking and Dagenham
84388,Age Concern Barnet,"Meritage Club,  Church End, London",NW4 4JT,522912.000000,189526.000000,51.591187,-0.227097,Barnet
84446,Arkley Golf Club,"Arkley Golf Club, 49 Rowley Green Road, Barnet",EN5 3HL,521961.000000,195799.000000,51.647769,-0.238636,Barnet
84995,Finchley Lawn Tennis Club,"Finchley Lawn Tennis Club,  Brent Way, London",N3 1AJ,525024.000000,191567.000000,51.609074,-0.195898,Barnet
84997,"Finchley Manor Lawn Tennis, Squash And Health Club","Finchley Manor Lawn Tennis And Squash Rackets Club,  Lyndhurst Gardens, London",N3 1TD,524474.000000,190734.000000,51.601700,-0.204132,Barnet
85165,Hendon Golf Club,"Hendon Golf Club,  Ashley Walk, London",NW7 1DG,523348.000000,191298.000000,51.607016,-0.220184,Barnet
85176,Hendon Sea Training Corps,"Hendon Sea Cadet Hall,  Cool Oak Lane, London",NW9 7ND,521646.000000,187598.000000,51.574134,-0.24603,Barnet
85537,Mill Hill Golf Club,"Mill Hill Golf Club, 100 Barnet Way, London",NW7 3AL,521007.000000,193656.000000,51.628706,-0.253159,Barnet
85543,Mill Hill Services Club,"Mill Hill Services Club Ltd, 11 Hartley Avenue, London",NW7 2HX,521714.000000,192158.000000,51.615101,-0.243484,Barnet
85664,Old Fold Manor Golf Club,"Old Fold Manor Golf Club,  Old Fold Lane, Barnet",EN5 4QN,524569.000000,197727.000000,51.664515,-0.200276,Barnet
85702,Papillion Lounge Bar,"The Market Place,  Falloden Way, London",NW11 6JJ,526002.000000,188985.000000,51.585643,-0.182709,Barnet
86135,The Alexandra,"The Alexandra, 1 Church Lane, London",N2 8DX,526860.000000,189965.000000,51.594258,-0.169978,Barnet
86163,The Cock & Dragon,"The Cock And Dragon,  Chalk Lane, Enfield",EN4 9HU,527760.000000,196693.000000,51.654507,-0.154541,Barnet
86174,The Dick Turpin,"Tavern Lodge, 383 Long Lane, London",N2 8JW,526393.000000,190058.000000,51.595198,-0.176682,Barnet
86188,The Gower Club,"University College School Sports Ground,  Ranulf Road, London",NW2 2BS,524812.000000,185915.000000,51.558309,-0.200966,Barnet
86190,The Greek Chef,"Glebelands Indoor Bowls Club,  Summers Lane, London",N12 0PD,526634.000000,191269.000000,51.606027,-0.172783,Barnet
86280,The York Arms,"York Arms, 310 Oakleigh Road North, London",N20 0DH,527538.000000,193417.000000,51.625127,-0.15894,Barnet
86344,Virgin Active - Friern Barnet,"Princess Park Manor,  Royal Drive, London",N11 3BG,528339.000000,192064.000000,51.612786,-0.147871,Barnet
380012,Barrow W M C,"Accommodation, Barrow Wmc, George Street, Worsbrough Bridge",S70 5EX,435481.000000,403921.000000,53.530746,-1.466186,Barnsley
380041,Birdwell Venue,"Birdwell Venue, Sheffield Road, Birdwell",S70 5UY,434531.000000,401514.000000,53.509193,-1.480796,Barnsley
380122,Carlton Village WMC & Inst,"Carlton Village Working Mens Club, 8 Crookes Lane, Carlton",S71 3JT,436235.000000,410148.000000,53.586671,-1.454107,Barnsley
380131,Cawthorne Club,"10 Tivy Dale Close, Cawthorne",S75 4ER,428250.000000,407821.000000,53.566245,-1.574934,Barnsley
380147,Che Bar & Coco,"34 Peel Street, Barnsley",S70 2RE,434281.000000,406292.000000,53.552136,-1.484044,Barnsley
380260,Cubley Hall,"Cubley Hall, Mortimer Road, Cubley",S36 9DF,424465.000000,402159.000000,53.515535,-1.632506,Barnsley
380296,Darfield Road W M C,"Darfield Road Wmc, Darfield Road, Cudworth",S72 8RL,439493.000000,407878.000000,53.566034,-1.405165,Barnsley
380348,Dodworth Miners Welfare Sports & Social Club,"Dodworth Miners Welfare, 45a High Street, Dodworth",S75 3RF,431586.000000,405186.000000,53.542372,-1.524831,Barnsley
380386,Elephant And Castle,"Elephant And Castle, Tingle Bridge Lane, Hemingfield",S73 0NT,439474.000000,401259.000000,53.506545,-1.4063,Barnsley
380477,Gawber Road WMC,"Gawber Road Wmc, 113 Gawber Road, Old Town",S75 2PR,433165.000000,407197.000000,53.560350,-1.500792,Barnsley
380509,Green Dragon Inn,"Green Dragon Inn, Cote Lane, Thurgoland",S35 7AE,429110.000000,400690.000000,53.502113,-1.56261,Barnsley
380510,Green Moor Sports Club,"Green Moor Sports Club, Hill Top Lane, Green Moor",S35 7DQ,428103.000000,399449.000000,53.491005,-1.577901,Barnsley
380624,Houghton Arms,"Great Houghton Wmc, 20 High Street, Great Houghton",S72 0AB,443082.000000,406617.000000,53.554419,-1.351168,Barnsley
380639,Hoylandswaine Sports & A Club,"Hoylandswaine Sports And Athletic Club, Barnsley Road, Hoylandswaine",S36 7JJ,426169.000000,404842.000000,53.539577,-1.606601,Barnsley
380699,Joseph Bramah,"Joseph Bramah, 15 Market Hill, Barnsley",S70 2PX,434403.000000,406381.000000,53.552937,-1.482193,Barnsley
380710,Jump W M C,"Jump Working Mens Club, Wentworth Road, Jump",S74 0JX,438076.000000,401074.000000,53.504985,-1.427399,Barnsley
380776,Last Orders,"Last Orders, 60 Park Street, Wombwell",S73 0HS,440404.000000,402700.000000,53.519426,-1.392093,Barnsley
380821,Lord Nelson,"Lord Nelson Inn, Barnsley Road, Hoylandswaine",S36 7JA,426400.000000,404725.000000,53.538514,-1.603126,Barnsley
381044,Penistone Royal British Legion,"British Legion Club, St Marys Street, Penistone",S36 6DT,424557.000000,403346.000000,53.526208,-1.631026,Barnsley
381050,Pheasant Inn,"Pheasant Inn, Cross Street, Monk Bretton",S71 2EP,436226.000000,407786.000000,53.565443,-1.454516,Barnsley
381078,Pocket Snooker Club,"Pockets Snooker Club, Midland Road, Royston",S71 4PX,436665.000000,411732.000000,53.600878,-1.447426,Barnsley
381087,Potters Wheel,"The Yorkshireman, The Parade, Clough Fields Road, Hoyland",S74 0HR,436818.000000,400096.000000,53.496293,-1.446479,Barnsley
381124,Queen's Head,"The Queens Head, 64 King Street, Hoyland",S74 9LG,437692.000000,400539.000000,53.500213,-1.433252,Barnsley
381145,Red Lion Country Inn,"The Red Lion Inn, Park Road, Worsbrough",S70 5LJ,435177.000000,403434.000000,53.526389,-1.470841,Barnsley
381155,Ring O' Bells,"Ring O Bells, Royston Lane, Royston",S71 4NJ,436495.000000,411120.000000,53.595390,-1.450066,Barnsley
381156,Rio's Nightclub,"The Theatre Royal, Wellington Street, Barnsley",S70 1SS,434413.000000,406247.000000,53.551732,-1.482057,Barnsley
381170,Rose & Crown,"The Rose And Crown, Barnsley Road, Hoylandswaine",S36 7JA,426400.000000,404725.000000,53.538514,-1.603126,Barnsley
381252,Shakespeare Hotel,"The Shakespeare Hotel, 13 Wellington Street, Barnsley",S70 1SS,434413.000000,406247.000000,53.551732,-1.482057,Barnsley
381253,Shaw Inn,"Shaw Inn, Racecommon Road, Barnsley",S70 6AE,433880.000000,405967.000000,53.549250,-1.490132,Barnsley
381289,Sir George's Arms,"Sir Georges Arms, Hough Lane, Wombwell",S73 0LP,439141.000000,402571.000000,53.518371,-1.411157,Barnsley
381314,Spread Eagle Hotel,"Spread Eagle Hotel, 12 Market Street, Penistone",S36 6BZ,424554.000000,403287.000000,53.525678,-1.631076,Barnsley
381336,Stainborough Cricket Club,"Stainborough Cricket Club, Park Drive, Stainborough",S75 3EW,432558.000000,403838.000000,53.530188,-1.510304,Barnsley
381346,Station Inn,"10 Station Road, Dodworth",S75 3JA,431439.000000,405264.000000,53.543082,-1.527042,Barnsley
381366,Sun Inn,"Sun Inn, Burton Road, Monk Bretton",S71 2JS,436630.000000,407830.000000,53.565810,-1.448411,Barnsley
381407,Tankersley Park Golf Club,"Tankersley Park Golf Club, Park Lane, Tankersley",S35 4LG,434590.000000,398418.000000,53.481353,-1.480247,Barnsley
381471,The Collingwood,"Collingwood Hotel, Station Road, Bolton Upon Dearne",S63 8JA,445507.000000,402795.000000,53.519873,-1.315121,Barnsley
381488,The Darley Inn,"The Darley Inn, 35 High Street, Worsbrough Bridge",S70 4SE,436015.000000,404042.000000,53.531797,-1.458131,Barnsley
381507,The Gate Inn,"Gate Inn, Milton Road, Hoyland",S74 9AU,437335.000000,400465.000000,53.499573,-1.438643,Barnsley
381544,The Officials Club,"115 Lidget Lane, Thurnscoe",S63 0DA,446348.000000,405480.000000,53.543923,-1.302026,Barnsley
381548,The Old Moor Tavern,"Old Moor Tavern, Everill Gate Lane, Wombwell",S73 0YG,441934.000000,402733.000000,53.519612,-1.369015,Barnsley
381549,The Old Number 7,"7 Market Hill, Barnsley",S70 2PX,434403.000000,406381.000000,53.552937,-1.482193,Barnsley
381566,The Portcullis,"The Arches, Pitt Street, Barnsley",S70 1BB,434157.000000,406104.000000,53.550463,-1.485936,Barnsley
381596,The White Bear,"White Bear, 11 Church Street, Barnsley",S70 2AB,434455.000000,406488.000000,53.553886,-1.481397,Barnsley
381599,Thornely Arms,"Thornley Arms, High Street, Dodworth",S75 3RF,431586.000000,405186.000000,53.542372,-1.524831,Barnsley
381606,Thurgoland Cricket Club,"Thurgoland Cricket Club, Cote Lane, Thurgoland",S35 7AE,429110.000000,400690.000000,53.502113,-1.56261,Barnsley
381666,Union Jack Memorial Club,"68 High Street, Goldthorpe, Rotherham",S63 9LQ,446235.000000,404087.000000,53.531422,-1.303952,Barnsley
381691,Voudou,"Voudou, 25 Wellington Street, Barnsley",S70 1SW,434440.000000,406125.000000,53.550633,-1.481663,Barnsley
381695,Walkabout,"Walkabout, 1-3 Church Street, Barnsley",S70 2AB,434455.000000,406488.000000,53.553886,-1.481397,Barnsley
381771,Worsbrough Sports & Development Association,"Worsbrough Sports And Development Association, Park Road, Worsbrough",S70 5LJ,435177.000000,403434.000000,53.526389,-1.470841,Barnsley
381775,Wortley Golf Club,"Wortley Golf Club, Hermit Hill Lane, Wortley",S35 7DF,431587.000000,400581.000000,53.500991,-1.525278,Barnsley
170189,Chandlers,"2 Ramsden Dock Road, Barrow-In-Furness, Cumbria",LA14 2TN,319646.000000,468031.000000,54.101868,-3.230341,Barrow-in-Furness
170221,Crystal Palace,"Crystal Palace, Dalkeith Street, Barrow-In-Furness, Cumbria",LA14 1ST,319820.000000,469391.000000,54.114116,-3.228042,Barrow-in-Furness
170254,Dunnerholm Golf Club,"Dunnerholme Golf Club, Duddon Road, Askam-In-Furness, Cumbria",LA16 7AW,321061.000000,478354.000000,54.194844,-3.211413,Barrow-in-Furness
170264,Farmers Arms,"Farmers Arms, Newton Cross Road, Newton-In-Furness, Barrow-In-Furness, Cumbria",LA13 0NB,323073.000000,471729.000000,54.135621,-3.178888,Barrow-in-Furness
170384,Masonic Hall,"Masonic Hall, Fairfield Lane, Barrow-In-Furness, Cumbria",LA13 9AH,320645.000000,470385.000000,54.123184,-3.215687,Barrow-in-Furness
170463,Railway Inn,"24 Ireleth Road, Ireleth, Askam-In-Furness, Cumbria",LA16 7DJ,321641.000000,477665.000000,54.188742,-3.202346,Barrow-in-Furness
170478,Roa Island Boating Club Ltd,"Roa Island Boating Club Ltd, Roa Island, Barrow-In-Furness, Cumbria",LA13 0QL,323214.000000,464935.000000,54.074603,-3.175003,Barrow-in-Furness
170481,Robin Hood Inn,"4-6 Crellin Street, Barrow-In-Furness, Cumbria",LA14 1DU,320065.000000,469329.000000,54.113597,-3.224279,Barrow-in-Furness
170524,Strawberry Hotel,"228 Abbey Road, Barrow-In-Furness, Cumbria",LA14 5LD,320775.000000,470803.000000,54.126951,-3.213808,Barrow-in-Furness
170563,The Cross Bar,"Barrow Associated Football Sup, Wilkie Road, Barrow-In-Furness, Cumbria",LA14 5UQ,319217.000000,470420.000000,54.123267,-3.23754,Barrow-in-Furness
170569,The Ferry,"The Ferry, Promenade, Barrow-In-Furness, Cumbria",LA14 3PE,318522.000000,468770.000000,54.108331,-3.247725,Barrow-in-Furness
170573,The Harbour,"Harbour Hotel, The Strand, Barrow-In-Furness, Cumbria",LA14 2HG,320105.000000,468803.000000,54.108877,-3.223528,Barrow-in-Furness
170586,The Owl And The Pussycat,"The Owl And The Pussycat, Walney Road, Barrow-In-Furness, Cumbria",LA14 2NA,319135.000000,469479.000000,54.114799,-3.238542,Barrow-in-Furness
170627,Wheatsheaf Hotel,"Wheatsheaf Hotel, Anson Street, Barrow-In-Furness, Cumbria",LA14 1YB,319252.000000,469516.000000,54.115150,-3.236762,Barrow-in-Furness
1012,Bowers United Sports & Social,"Bowers United Sports And Social Club, Crown Avenue, Pitsea, Basildon",SS13 2BE,574498.000000,189158.000000,51.574281,0.51673,Basildon
1251,Fryerns Social Club,"Fryerns Social Club, Fryerns Community Centre, Whitmore Way, Basildon, Essex",SS14 2NN,571715.000000,189547.000000,51.578629,0.4768,Basildon
1345,Inn on the Green,"Mountnessing Road, Billericay, Essex",CM12 0EH,566700.000000,195349.000000,51.632247,0.40725,Basildon
1509,Moon on the Square,"1-15 Market Square, Basildon, Essex",SS14 1DF,570353.000000,188485.000000,51.569503,0.456649,Basildon
1657,Red Lion,"113 High Street, Billericay, Essex",CM12 9AJ,567372.000000,194536.000000,51.624762,0.416563,Basildon
1777,Stock Brook Manor Golf Club,"Queens Park Avenue, Billericay, Essex",CM12 0SP,567147.000000,197178.000000,51.648554,0.414575,Basildon
228938,Bakers Arms,"The Bakers, 15 Winchester Street, Basingstoke, Hampshire",RG21 7ED,463761.000000,151859.000000,51.262333,-1.087566,Basingstoke and Deane
228963,Basingstoke Rugby Club,"Pack Lane, Basingstoke, Hampshire",RG22 5HH,460871.000000,150526.000000,51.250663,-1.129207,Basingstoke and Deane
229306,King Of Wessex,"Winchester Road, Basingstoke, Hampshire",RG21 8YS,463127.000000,151421.000000,51.258456,-1.096743,Basingstoke and Deane
229441,New Inn,"The New Inn, Rowan Road, Tadley, Hampshire",RG26 3RG,460444.000000,161502.000000,51.349391,-1.133483,Basingstoke and Deane
229489,Overton Rugby Club,"Home Farm, Laverstoke Park, Laverstoke, Whitchurch",RG28 7NT,449056.000000,149264.000000,51.240453,-1.298652,Basingstoke and Deane
229570,Royal British Legion,"Royal British Legion Club, Herriard, Basingstoke, Hampshire",RG25 2PG,467219.000000,145121.000000,51.201358,-1.039276,Basingstoke and Deane
229706,The Bolton Arms,"91 The Street, Old Basing, Basingstoke, Hampshire",RG24 7DA,466717.000000,153426.000000,51.276083,-1.044916,Basingstoke and Deane
229708,The Bramley Inn,"The Street, Bramley, Tadley, Hampshire",RG26 5BT,465430.000000,159422.000000,51.330140,-1.062266,Basingstoke and Deane
229737,The Fur And Feathers,"Fur And Feathers, Herriard, Basingstoke, Hampshire",RG25 2PN,467115.000000,144730.000000,51.197854,-1.040837,Basingstoke and Deane
229752,The Hoddington Arms,"Hoddington Arms, Bidden Road, Upton Grey, Basingstoke",RG25 2RL,469991.000000,148263.000000,51.229273,-0.998995,Basingstoke and Deane
229754,The Irish Centre,"Council Road, Basingstoke, Hampshire",RG21 3DH,463722.000000,151549.000000,51.259550,-1.08818,Basingstoke and Deane
229755,The Iron Duke,"Fair Oak Lane, Stratfield Saye, Reading, Hampshire",RG7 2EH,468273.000000,161653.000000,51.349864,-1.021054,Basingstoke and Deane
229756,The Jekyll & Hyde,"The Jekyll And Hyde, Basingstoke Road, Hartley Wespall, Hook",RG27 0AX,469690.000000,159518.000000,51.330498,-1.001113,Basingstoke and Deane
229790,The Red House Inn,"21 London Street, Whitchurch, Hampshire",RG28 7LH,446345.000000,148159.000000,51.230735,-1.337627,Basingstoke and Deane
229792,The Red Lion Italian Gastro Pub,"The Red Lion, Church Road, Mortimer West End, Reading",RG7 2HU,463377.000000,164069.000000,51.372151,-1.090903,Basingstoke and Deane
229799,The Ship Inn,"The Ship, Ashford Hill Road, Ashford Hill, Thatcham",RG19 8BD,455656.000000,162099.000000,51.355247,-1.202133,Basingstoke and Deane
229810,The Swan,"3 Kiln Road, Sherborne St John, Basingstoke, Hampshire",RG24 9HS,462506.000000,155298.000000,51.293391,-1.10495,Basingstoke and Deane
229811,The Swan Inn,"Newtown, Newbury, Hampshire",RG20 9BH,447670.000000,163932.000000,51.372452,-1.316564,Basingstoke and Deane
229826,The White Hart,"White Hart, Stoke, Andover, Hampshire",SP11 0NP,440466.000000,151985.000000,51.265591,-1.421389,Basingstoke and Deane
229829,The White Hart Hotel,"London Street, Whitchurch, Hampshire",RG28 7DN,446275.000000,148166.000000,51.230812,-1.338643,Basingstoke and Deane
229909,Wote Street Club,"Wote Street, Basingstoke, Hampshire",RG21 7NG,463917.000000,152059.000000,51.264114,-1.085295,Basingstoke and Deane
47411,Anchor Inn,"The Anchor Inn, Eastgate, Worksop, Nottinghamshire",S80 1RE,458731.000000,379368.000000,53.308007,-1.120052,Bassetlaw
47467,Blue Bell Inn,"Great North Road, Ranskill, Nottinghamshire",DN22 8NJ,465634.000000,387972.000000,53.384534,-1.014689,Bassetlaw
47615,Duke William,"The Duke William, Town Street, Askham, Nottinghamshire",NG22 0RS,474035.000000,375030.000000,53.267098,-0.891428,Bassetlaw
47826,Lock Keeper,"The Lock Keeper, Sandy Lane, Worksop, Nottinghamshire",S80 1TL,457760.000000,379752.000000,53.311564,-1.134552,Bassetlaw
47864,Meg's Bar,"Springhead Brewery, Main Street, Laneham, Nottinghamshire",DN22 0NA,480445.000000,376217.000000,53.276842,-0.795043,Bassetlaw
47887,Moth & Lantern Hotel,"Moth And Lantern Hotel, Town Street, Cottam, Nottinghamshire",DN22 0EU,481601.000000,379795.000000,53.308819,-0.776792,Bassetlaw
47926,Old Norfolk Arms,"2 Norfolk Street, Worksop, Nottinghamshire",S80 1LE,458237.000000,378744.000000,53.302461,-1.127578,Bassetlaw
48012,Retford Bowling Green Ltd,"Retford Bowling Green, Hallcroft Road, Retford, Nottinghamshire",DN22 7LB,470114.000000,381773.000000,53.328239,-0.948719,Bassetlaw
48171,The Greyhound Public House,"The Greyhound, Richmond Road, Worksop, Nottinghamshire",S80 2TP,459329.000000,378076.000000,53.296328,-1.111319,Bassetlaw
48214,The Swan Inn,"Swan Inn, Castle Street, Worksop, Nottinghamshire",S80 1LQ,458385.000000,378764.000000,53.302616,-1.125355,Bassetlaw
48225,The White Lion,"Top House, 50 Park Street, Worksop, Nottinghamshire",S80 1HW,458507.000000,378466.000000,53.299925,-1.123579,Bassetlaw
48278,Waterfront Inn,"Canal Lane, West Stockwith, Nottinghamshire",DN10 4ET,478686.000000,394710.000000,53.443288,-0.816822,Bassetlaw
48291,White Hart Inn,"Main Street, West Stockwith, Nottinghamshire",DN10 4EY,479026.000000,394740.000000,53.443506,-0.811697,Bassetlaw
48313,Worksop Sea Cadets,"74A Gateford Road, Worksop, Nottinghamshire",S80 1TY,458404.000000,379653.000000,53.310604,-1.124906,Bassetlaw
48319,Yate's,"The Litten Tree, 1 Victoria Square, Worksop, Nottinghamshire",S80 1DX,458520.000000,379296.000000,53.307392,-1.123231,Bassetlaw
292618,Blathwayt,"Blathwayt Arms, Lansdown Road, Charlcombe, Bath",BA1 9BT,372566.000000,168653.000000,51.416232,-2.395883,Bath and North East Somerset
292792,Coeur De Lion Public House,"Coeur De Lion, 17 Northumberland Place, Bath",BA1 5AR,375054.000000,164880.000000,51.382405,-2.359854,Bath and North East Somerset
292806,Combe Down Rugby Football Club,"Combe Down Rugby Club, North Road, Combe Down, Bath",BA2 5DE,375675.000000,162468.000000,51.360753,-2.350751,Bath and North East Somerset
292863,Crossways Tavern,"Crossway Tavern, Redfield Road, Midsomer Norton",BA3 2JH,365909.000000,153919.000000,51.283382,-2.49019,Bath and North East Somerset
292952,Forester And Flower,"Foresters' Arms, 172 Bradford Road, Combe Down, Bath",BA2 5BZ,375413.000000,162343.000000,51.359610,-2.354505,Bath and North East Somerset
292975,Full Moon Public House,"The Full Moon, High Street, Twerton, Bath",BA2 1DQ,372457.000000,164714.000000,51.380801,-2.397143,Bath and North East Somerset
292990,George And Dragon,"George & Dragon, High Street, Pensford, Bristol",BS39 4BH,362056.000000,163665.000000,51.370767,-2.546473,Bath and North East Somerset
293038,Hampset Cricket Club,"Bloomfield Rise, Bloomfield, Bath, Bath And North East Somerset",BA2 2BL,373597.000000,162732.000000,51.363025,-2.380615,Bath and North East Somerset
293244,Livingstone Public House,"The Livingston Hotel, 24 - 25 Moorland Road, Oldfield Park, Bath",BA2 3PW,373708.000000,164364.000000,51.377714,-2.379142,Bath and North East Somerset
293347,Molloy's,"1 Barton Street, City Centre, Bath",BA1 1HQ,374853.000000,164865.000000,51.382270,-2.362742,Bath and North East Somerset
293469,Parade Park And Lambrettas Bar,"Lambrettas Bar & Bistro  Parade Par, 8 - 10 North Parade, City Centre, Bath",BA2 4AL,375280.000000,164687.000000,51.380689,-2.356594,Bath and North East Somerset
293529,Pony And Trap,"Pony & Trap, Newtown, Moorledge Road, Chew Magna",BS40 8TQ,358826.000000,161312.000000,51.349376,-2.592599,Bath and North East Somerset
293553,Purnell Sports Club,"Purnell Cricket Club, Bristol Road, Paulton, Bristol",BS39 7NX,365179.000000,156903.000000,51.310168,-2.500948,Bath and North East Somerset
293567,Railway Inn,"Station Road, Clutton, Bristol, Bath And North East Somerset",BS39 5PD,362554.000000,159179.000000,51.330465,-2.538846,Bath and North East Somerset
293572,Randalls,"Bath City Football Club Ltd, High Street, Twerton, Bath",BA2 1DB,372630.000000,164592.000000,51.379713,-2.394648,Bath and North East Somerset
293575,Red Post Inn,"Bath Road, Peasedown St. John, Bath, Bath And North East Somerset",BA2 8JH,369885.000000,157154.000000,51.312703,-2.433456,Bath and North East Somerset
293585,Ring O' Bells,"Ring O'Bells, 10 Widcombe Parade, Widcombe, Bath",BA2 4JT,375435.000000,164208.000000,51.376389,-2.354333,Bath and North East Somerset
293775,Sub 13,"Basement Sub 13 Wine Bar, 4 Edgar Buildings, City Centre, Bath",BA1 2EE,374910.000000,165191.000000,51.385195,-2.361931,Bath and North East Somerset
293832,The Barley Mow,"The Barley, 32 Bathwick Street, Bathwick, Bath",BA2 6NZ,375595.000000,165360.000000,51.386745,-2.352114,Bath and North East Somerset
293864,The Charlton,"Longmeadow Road, Keynsham, Bristol, Bath And North East Somerset",BS31 2SD,364566.000000,167596.000000,51.406283,-2.510811,Bath and North East Somerset
293895,The Crown Inn,"Crown Inn, 63 Bristol Road, Keynsham, Bristol",BS31 2WA,364934.000000,168909.000000,51.418112,-2.505651,Bath and North East Somerset
293960,The Old Crown Inn,"Old Crown Inn, Bath Road, Kelston, Bath",BA1 9AQ,370026.000000,167285.000000,51.403803,-2.43229,Bath and North East Somerset
293968,The Old Station Inn,"Old Station Inn, Wells Road, Hallatrow",BS39 6EN,363265.000000,157104.000000,51.311864,-2.528427,Bath and North East Somerset
294003,The Rose & Crown,"6 - 8 Brougham Place, St Saviour's Road, Larkhall, Bath",BA1 6SJ,376125.000000,166711.000000,51.398915,-2.344575,Bath and North East Somerset
294025,The Thief,"King's Arms, 1 Monmouth Place, City Centre, Bath",BA1 2AT,374561.000000,164948.000000,51.382995,-2.366943,Bath and North East Somerset
294030,The Trinity Inn,"49 James Street West, City Centre, Bath, Bath And North East Somerset",BA1 2DA,374825.000000,164705.000000,51.380831,-2.363118,Bath and North East Somerset
294031,The Victoria Hotel,"23 Millmead Road, Twerton, Bath",BA2 3JW,373394.000000,164435.000000,51.378337,-2.383659,Bath and North East Somerset
294035,The Westgate,"38 Westgate Street, City Centre, Bath, Bath And North East Somerset",BA1 1EL,374969.000000,164790.000000,51.381601,-2.361055,Bath and North East Somerset
294069,Travellers Rest,"Pensford Hill, Pensford",BS39 4JF,361642.000000,164372.000000,51.377096,-2.552497,Bath and North East Somerset
294076,Trowbridge House Public House,"Trowbridge House Inn, 128 - 130 Coronation Avenue, Southdown, Bath",BA2 2JP,373246.000000,163658.000000,51.371344,-2.385727,Bath and North East Somerset
2052,Angel Domino Team,"30 The Broadway, Bedford",MK40 2TH,504936.000000,250151.000000,52.139699,-0.468084,Bedford
2129,Bedford Standard,"The Standard, 26-28 High Street, Bedford",MK40 1SP,505040.000000,249761.000000,52.136174,-0.466686,Bedford
2169,Briar Bank Club,"Briar Bank Club, Hawthorn Drive, Wilstead, Bedford",MK45 3ES,506403.000000,243063.000000,52.075717,-0.448869,Bedford
2590,Horse & Jockey,"Horse & Jockey, Church End, Ravensden, Bedford",MK44 2RR,507767.000000,254389.000000,52.177242,-0.425391,Bedford
2656,Kempston Constitutional Club,"196a Bedford Road, Kempston, Bedford",MK42 8BL,503220.000000,247832.000000,52.119180,-0.493852,Bedford
2862,North End Club,"The North End Working Mens Social Club, 60 Roff Avenue, Bedford",MK41 7TW,504561.000000,250443.000000,52.142385,-0.473472,Bedford
2929,Podington Cricket Club,"Podington Cricket Club, Hinwick Road, Podington, Bedford",NN29 7HU,494039.000000,262371.000000,52.251490,-0.623872,Bedford
3045,Shortstown Village Hall,"Shortstown Village Hall, Shorts Avenue, Shortstown, Bedford",MK42 0FB,507168.000000,246643.000000,52.107753,-0.436586,Bedford
3104,Stewartby Sports & Social Club,"The Club House, Stewartby Way, Stewartby, Bedford",MK43 9NU,501955.000000,242410.000000,52.070675,-0.513941,Bedford
3168,The Anchor Inn,"The Anchor Inn, 85 High Street, Great Barford, Bedford",MK44 3LF,513295.000000,251750.000000,52.152420,-0.345463,Bedford
3179,The Bell,"The Bell, 61 High Road, Cotton End, Bedford",MK45 3AE,508510.000000,245348.000000,52.095853,-0.417411,Bedford
3193,The Chequers of Yelden,"The Chequers Inn, High Street, Yielden, Bedford",MK44 1AW,501217.000000,266741.000000,52.289492,-0.517451,Bedford
3216,The Flowerpot,"The Flowerpot, 25 Tavistock Street, Bedford",MK40 2RB,504864.000000,250222.000000,52.140351,-0.469114,Bedford
3255,The Pheasant,"The Pheasant, 300 Kimbolton Road, Bedford",MK41 8YR,505916.000000,252640.000000,52.161881,-0.452995,Bedford
3268,The Star Inn,"The Star Inn, 42 High Street, Clapham, Bedfordshire",MK41 6EG,503391.000000,252352.000000,52.159771,-0.489982,Bedford
3380,Ye three Fyshes PH,"Ye Three Fyshes Inn, Bridge Street, Turvey, Bedford",MK43 8ER,493954.000000,252396.000000,52.161851,-0.627881,Bedford
86485,Arcadia Lounge Bar,"247 Broadway, Bexleyheath, Kent",DA6 8DB,548624.000000,175331.000000,51.457454,0.137831,Bexley
86522,Bear & Ragged Staff,"2 London Road, Crayford, Kent",DA1 4BH,551370.000000,174784.000000,51.451812,0.177091,Bexley
86557,Bexley Deaf Club,"Inspire Community Centre, Whitehall Lane, Erith, Kent",DA8 2DH,551803.000000,176432.000000,51.466503,0.184024,Bexley
86565,Bexley Lawn Tennis & Squash Club,"Parkhurst Road, Bexley, Kent",DA5 1AX,549391.000000,173956.000000,51.444888,0.148267,Bexley
86772,Dashwood Social Club,"2 Limestone Walk, Erith, Kent",DA18 4BW,547931.000000,179584.000000,51.495849,0.129643,Bexley
86861,Flower Of Kent Social Club,"118 Maidstone Road, Sidcup, Kent",DA14 5HS,547728.000000,170703.000000,51.416104,0.123015,Bexley
87343,Plough And Harrow,"143 Bellegrove Road, Welling, Kent",DA16 3QS,546003.000000,175925.000000,51.463472,0.100378,Bexley
87471,Sidcup & District Conservative Club,"Oxford Road, Sidcup, Kent",DA14 6LW,546861.000000,171173.000000,51.420552,0.110751,Bexley
87472,Sidcup And Footscray United Services Club,"108 Main Road, Sidcup, Kent",DA14 6NG,545991.000000,171774.000000,51.426168,0.098494,Bexley
87480,Sidcup Recreation Club,"Church Avenue, Sidcup, Kent",DA14 6BU,546516.000000,171500.000000,51.423570,0.105927,Bexley
87513,Sporting Club Thamesmead,"30 Bayliss Avenue, Thamesmead, London",SE28 8NJ,547785.000000,180821.000000,51.507002,0.128059,Bexley
87605,The Anchor,"Bridgen Road, Bexley, Kent",DA5 1JE,548384.000000,173971.000000,51.445288,0.133809,Bexley
87647,The Eardley Arms,"44 Woolwich Road, Belvedere, Kent",DA17 5EN,548742.000000,178291.000000,51.484019,0.140758,Bexley
87657,The Green Man Public House & Sunset Restaurant,"168 Wickham Street, Welling, Kent",DA16 3NL,545421.000000,176291.000000,51.466911,0.092156,Bexley
87669,The Morgan,"Clydesdale Way, Belvedere, Kent",DA17 6FD,549793.000000,179760.000000,51.496940,0.15652,Bexley
87697,The Volunteer Public House,"46 Church Road, Bexleyheath, Kent",DA7 4DQ,548611.000000,175654.000000,51.460359,0.13778,Bexley
87719,Travellers Home Public House,"Long Lane, Bexleyheath, Kent",DA7 5AR,549586.000000,175929.000000,51.462565,0.151919,Bexley
340260,B15 Student Bar,"Birmingham University, Queens Hospital Close, Birmingham",B15 1NH,406197.000000,286152.000000,52.473267,-1.910196,Birmingham
340450,Big Bulls Head,"Big Bulls Head, 75 Digbeth, Birmingham",B5 6DY,407734.000000,286432.000000,52.475756,-1.887562,Birmingham
340601,Boot Inn,"Rectory Road, Sutton Trinity, Birmingham, Birmingham",B75 7RU,413166.000000,296549.000000,52.566612,-1.807192,Birmingham
340641,Bottle Of Sack,"2 Birmingham Road, Sutton Vesey, Birmingham, Birmingham",B72 1QQ,411819.000000,295601.000000,52.558120,-1.827098,Birmingham
340699,Bristol Pear,"676 Bristol Road, Selly Oak, Birmingham",B29 6BJ,404460.000000,282864.000000,52.443724,-1.935796,Birmingham
340702,Britannia Inn,"Britannia, 911 Warwick Road, Acocks Green, Birmingham",B11 2ER,411434.000000,283755.000000,52.451634,-1.833194,Birmingham
340704,British Muslim Association,"496 Moseley Road, Sparkbrook, Birmingham",B12 9AH,407880.000000,284344.000000,52.456991,-1.885461,Birmingham
340705,British Oak,"British Oak, 1364 Pershore Road, Bournville, Birmingham",B30 2XS,405409.000000,281128.000000,52.428109,-1.921877,Birmingham
340725,Bromford Residents Club,"Cameronian Croft, Birmingham",B36 8UB,412439.000000,289889.000000,52.506757,-1.818164,Birmingham
340766,Bulls Head,"The Green, Kings Norton, Birmingham",B38 8RU,404825.000000,278791.000000,52.407105,-1.930498,Birmingham
340933,Casey Joes,"1293-1295 Warwick Road, Acocks Green, Birmingham",B27 6PU,412818.000000,282746.000000,52.442542,-1.812853,Birmingham
341006,Charlie Hall Public House,"49 Barnabas Road, Birmingham",B23 6SH,410985.000000,291832.000000,52.524255,-1.839523,Birmingham
341122,Church Tavern,"Church Tavern, 25-27 Church Road, Perry Barr, Birmingham",B42 2LA,407000.000000,292144.000000,52.527116,-1.898251,Birmingham
341333,Cross Keys,"15 High Street, Erdington, Birmingham",B23 6RG,411173.000000,292181.000000,52.527389,-1.83674,Birmingham
341337,Crown Inn,"Walsall Road, Sutton Four Oaks, Birmingham, Birmingham",B74 4RA,410358.000000,299229.000000,52.590765,-1.848536,Birmingham
341547,East Birminghams Allotment Holders,"155 Cotterills Lane, Birmingham",B8 3RY,411902.000000,287580.000000,52.486011,-1.826158,Birmingham
341854,Gatecrasher,"182 Broad Street, Birmingham",B15 1DA,405892.000000,286278.000000,52.474403,-1.914684,Birmingham
341863,Genting Casinos Uk Ltd,"1-2 Norfolk Road, Edgbaston, Birmingham",B15 3PS,403895.000000,285813.000000,52.470239,-1.944089,Birmingham
341864,Genting Casinos Uk Ltd,"Baylis House, 16 Hurst Street, Birmingham",B5 4BN,407059.000000,286391.000000,52.475396,-1.897501,Birmingham
342091,Hall Green Conservative Club,"1243 Stratford Road, Hall Green, Birmingham",B28 9AA,410567.000000,281690.000000,52.433087,-1.846001,Birmingham
342159,Hare And Hounds P H,"Hare And Hounds, High Street, Moseley And Kings Heath, Birmingham",B14 7JZ,407371.000000,281991.000000,52.435854,-1.893003,Birmingham
342160,Hare Of The Dog,"Hare Of The Dog, 76 Franchise Street, Birmingham",B42 2ST,407085.000000,290958.000000,52.516471,-1.897023,Birmingham
342198,Heathway Public House,"The Heathway, Heathland Avenue, Birmingham",B34 6LS,414259.000000,289192.000000,52.500447,-1.79138,Birmingham
342339,Horse & Jockey,"Horse And Jockey, 90 Birmingham Road, Sutton Vesey, Birmingham",B72 1LY,411811.000000,294915.000000,52.551953,-1.82724,Birmingham
342340,Horseshoe Inn,"Horseshoe Inn, 611 Alcester Road South, Billesley, Birmingham",B14 5EL,407884.000000,279617.000000,52.414496,-1.885512,Birmingham
342446,Irish Centre,"High Street, Nechells (Deritend), Birmingham",B12 0LN,407852.000000,286278.000000,52.474378,-1.885829,Birmingham
342451,Island,"14 Suffolk Street Queensway, Birmingham",B73 6UU,408265.000000,296079.000000,52.562482,-1.879508,Birmingham
342738,Kings Snooker Club,"60 York Road, Moseley And Kings Heath, Birmingham",B14 7RZ,407262.000000,281873.000000,52.434786,-1.894609,Birmingham
343169,Man On The Moon,"Redditch Road, Birmingham",B38 8LR,403229.000000,277332.000000,52.394000,-1.953973,Birmingham
343368,Minworth Social Club And Institute Ltd,"Robinsons Way, Birmingham",B76 9BB,415890.000000,292126.000000,52.526778,-1.767215,Birmingham
343438,Moseley All Services Club,"Moseley All Services Club, 91 Church Road, Moseley And Kings Heath, Birmingham",B13 9EA,408042.000000,283254.000000,52.447190,-1.883103,Birmingham
343595,New Inn,"New Inn, 71 Summer Road, Stockland Green, Birmingham",B23 6UT,410760.000000,291869.000000,52.524601,-1.842838,Birmingham
343730,O'Donovans,"Catherine O Donovans, 101 Bissell Street, Nechells, Birmingham",B5 7HP,407358.000000,285658.000000,52.468811,-1.893115,Birmingham
343740,Old Oscott Working Mens Club,"Old Scott Working Mens, 1196 Aldridge Road, Oscott, Birmingham",B44 8PE,406388.000000,294894.000000,52.551845,-1.907219,Birmingham
343744,Old Windmill,"Flat Above, The Old Windmill, 84 Dudley Road, Birmingham",B18 7QN,404718.000000,287642.000000,52.486676,-1.931964,Birmingham
343997,Play Sports Bar Grill,"Kotwall House, Wrottesley Street, Birmingham",B5 4RT,407059.000000,286391.000000,52.475396,-1.897501,Birmingham
344157,Queens Arms,"Macdonald Street, Birmingham",B5 6TG,407469.000000,285777.000000,52.469880,-1.891478,Birmingham
344167,Quinton Members Club,"415 West Boulevard, Quinton, Birmingham",B32 2PP,401401.000000,283969.000000,52.453674,-1.98081,Birmingham
344193,Rainbow Live Music Venue,"149-150 Adderley Street, Birmingham",B9 4EE,408469.000000,286353.000000,52.475044,-1.876743,Birmingham
344357,Royal Oak,"Royal Oak, 1 Marsh Lane, Birmingham",B23 6HX,410608.000000,292253.000000,52.528047,-1.845066,Birmingham
344513,Sedgemere Sports & Social Club,"21 Sedgemere Road, Birmingham",B26 2AX,414121.000000,286021.000000,52.471943,-1.793546,Birmingham
344633,Sheldon Heath Social Club,"Brays Road, Birmingham",B26 2RJ,414836.000000,284904.000000,52.461883,-1.783055,Birmingham
344643,Shenley Lane Community Association,"472 Shenley Lane, Weoley, Birmingham",B29 4HZ,402269.000000,280560.000000,52.423033,-1.968059,Birmingham
344744,Soloman Cutler,"Regency Wharf, Broad Street, Birmingham",B1 2DS,406189.000000,286650.000000,52.477744,-1.910305,Birmingham
344917,St. Andrews Tavern,"61-63 Green Lane, Nechells, Birmingham",B9 5BU,409431.000000,286112.000000,52.472861,-1.862587,Birmingham
344994,Stirchley United Working Mens Club,"41 Hazelwell Lane, Birmingham",B30 2PR,405535.000000,281233.000000,52.429060,-1.920021,Birmingham
345122,Sutton Coldfield Conservative Club,"138 Jockey Road, Birmingham",B73 5DF,409767.000000,294504.000000,52.548298,-1.857396,Birmingham
345186,Tascos Social Club,"Hazelwell Lane, Birmingham",B30 2PR,405530.000000,281231.000000,52.429043,-1.920095,Birmingham
345289,The Bell,"The Bell, 11 Old Church Road, Birmingham",B17 0BB,402822.000000,283997.000000,52.453920,-1.9599,Birmingham
345297,The Blake Barn,"Blake Barn Inn, 40 Shelley Drive, Sutton Four Oaks, Birmingham",B74 4YE,410700.000000,300609.000000,52.603173,-1.843443,Birmingham
345310,The Bull,"The Bull Public House, 1 Price Street, Birmingham",B4 6JU,407210.000000,287629.000000,52.486533,-1.895251,Birmingham
345320,The Cambridge,"The Cambridge, 6 College Street, Longbridge, Birmingham",B31 2US,569056.000000,5805482.000000,52.395220,-1.985119,Birmingham
345329,The Clements,"87 New Town Row, Birmingham",B6 4HG,407228.000000,288166.000000,52.491360,-1.894975,Birmingham
345354,The Crane Hungry Horse,"The Crane Hungry Horse, 77 Cranes Park Road, Birmingham",B26 3SN,415257.000000,284334.000000,52.456738,-1.776899,Birmingham
345358,The Crown Hotel,"182 Corporation Street, Ladywood, Birmingham",B4 6UD,407332.000000,287205.000000,52.482719,-1.893464,Birmingham
345375,The Eagle Tavern,"189 Mary Street, Sparkbrook, Birmingham",B12 9RN,407402.000000,284357.000000,52.457114,-1.892495,Birmingham
345390,The Flapper And Firkin,"Kingston Row, Birmingham",B1 2NU,406041.000000,286922.000000,52.480191,-1.912479,Birmingham
345406,The Goose,"The Goose, 70 High Street, Moseley And Kings Heath, Birmingham",B14 7JZ,407371.000000,281991.000000,52.435854,-1.893003,Birmingham
345430,The Horseshoe,"The Horseshoe, 1214 Stratford Road, Hall Green, Birmingham",B28 9BH,410612.000000,281743.000000,52.433572,-1.845353,Birmingham
345442,The Jekyll And Hyde,"The Jekyll And Hyde, 28 Steelhouse Lane, Birmingham",B4 6BJ,407229.000000,287276.000000,52.483359,-1.894979,Birmingham
345449,The Lamp Tavern,"The Lamp Tavern, 157 Barford Street, Birmingham",B5 6AH,407484.000000,285976.000000,52.471669,-1.891253,Birmingham
345505,The Old Rep Theatre,"Drama School, The Old Repertory Theatre, Station Street, Birmingham",B5 4EB,406997.000000,286524.000000,52.476601,-1.898411,Birmingham
345522,The Pig & Tail,"George & Dragon, 12 Albion Street, Birmingham",B1 3AA,405911.000000,287364.000000,52.484174,-1.914385,Birmingham
345523,The Pint Pot,"The Pint Pot, 50 Tower Road, Sutton Four Oaks, Birmingham",B75 5EA,411991.000000,299090.000000,52.589482,-1.824436,Birmingham
345526,The Plough And Harrow,"Slade Road, Sutton Four Oaks, Birmingham, Birmingham",B75 5PF,413154.000000,299105.000000,52.589590,-1.807283,Birmingham
345534,The Raven,"Hodge Hill Road, Birmingham",B34 6DR,413764.000000,288725.000000,52.496261,-1.798691,Birmingham
345560,The Shaftmoor,"The Shaftmoor, 266 Shaftmoor Lane, Birmingham",B28 8ST,410639.000000,282740.000000,52.442534,-1.844909,Birmingham
345571,The Sportsmans Rest,"20 Cooksey Lane, Birmingham",B44 9QN,407908.000000,295511.000000,52.557381,-1.884788,Birmingham
345578,The Sun On The Hill,"23 Bennetts Hill, Birmingham",B2 5QP,406896.000000,286869.000000,52.479695,-1.899891,Birmingham
345589,The Thurlestone,"Thurlestone Road, Birmingham",B31 4PD,401577.000000,277009.000000,52.391103,-1.978251,Birmingham
345593,The Trocadero,"Temple Street, Birmingham",B2 5BG,406949.000000,286836.000000,52.479407,-1.899111,Birmingham
345843,Verdo Lounge Cafe Bar,"430 Birmingham Road, Sutton New Hall, Birmingham, Birmingham",B72 1YJ,411767.000000,293046.000000,52.535152,-1.827954,Birmingham
345864,Village Inn,"The Village Inn, 179 Alcester Road, Birmingham",B13 8JR,407534.000000,283000.000000,52.444905,-1.890583,Birmingham
345913,Walkabout / Surfers Paradise,"Walkabout Inn, 266-271 Broad Street, Birmingham",B1 2DS,406189.000000,286650.000000,52.477744,-1.910305,Birmingham
48377,Blaby Golf Range,"Blaby Golf Range, Lutterworth Road, Blaby, Leicestershire",LE8 4DP,456563.000000,296951.000000,52.567445,-1.166929,Blaby
48512,Enderby & District Social Club,"Coleridge Drive, Enderby, Leicestershire",LE19 4RS,453224.000000,299021.000000,52.586397,-1.215854,Blaby
48567,Heathcote Arms,"Hill Street, Croft, Leicestershire",LE9 3EG,451234.000000,296008.000000,52.559504,-1.245688,Blaby
48740,Red Cow,"Hinckley Road, Leicester Forest East, Leicestershire",LE3 3PG,452938.000000,303305.000000,52.624934,-1.219391,Blaby
48765,Sapcote Working Mens Club,"19 Hinckley Road, Sapcote, Leicestershire",LE9 4FS,448780.000000,293449.000000,52.536717,-1.282258,Blaby
48834,The Countryman,"23 Leicester Road, Sharnford, Leicestershire",LE10 3PP,448096.000000,291736.000000,52.521379,-1.292589,Blaby
48838,The Dovecote,"Coventry Road, Narborough Town, Leicestershire",LE19 2GN,453354.000000,297304.000000,52.570950,-1.214196,Blaby
48875,The Star Inn,"15 New Road, Stoney Stanton, Leicestershire",LE9 4LQ,448998.000000,294734.000000,52.548258,-1.278855,Blaby
170651,Adelphi Beer Emporium,"Adelphi Hotel, 33 Railway Road, Blackburn",BB1 1EZ,368473.000000,427997.000000,53.747375,-2.479542,Blackburn with Darwen
170755,Blackamoor Inn,"140 Roman Road, Blackburn",BB1 2LD,369669.000000,425286.000000,53.723090,-2.461125,Blackburn with Darwen
170792,Brownhill Arms,"575 Whalley New Road, Blackburn",BB1 9BA,368515.000000,431097.000000,53.775249,-2.479222,Blackburn with Darwen
170810,Calypso Caribbean Restaurant,"The Wharf, Eanam, Blackburn",BB1 5BY,368828.000000,428199.000000,53.749221,-2.474179,Blackburn with Darwen
170850,Clifton Arms,"Clifton Arms, 48 Grimshaw Park, Blackburn",BB2 3AG,368576.000000,427100.000000,53.739319,-2.477888,Blackburn with Darwen
170946,Edgworth Cricket Club,"Edgworth Cricket Club, Bolton Road, Edgworth",BL7 0AP,374096.000000,416592.000000,53.645188,-2.393322,Blackburn with Darwen
170967,Ewood Park Working Mens Club,"316-322 Bolton Road, Blackburn",BB2 4HY,367711.000000,425886.000000,53.728373,-2.490875,Blackburn with Darwen
170976,Feildens Arms,"Feildens Arms, 673 Preston Old Road, Blackburn",BB2 5ER,364722.000000,425767.000000,53.727109,-2.536163,Blackburn with Darwen
171015,Gala Bingo,"Gala Clubs Bingo, Ainsworth Street, Blackburn",BB1 6AF,368432.000000,428366.000000,53.750698,-2.480201,Blackburn with Darwen
171080,Havelock Inn,"1 Havelock Street, Blackburn",BB2 2QA,367354.000000,426911.000000,53.737545,-2.496394,Blackburn with Darwen
171092,Hoddlesden Conservative Club,"2-4 Harwoods Lane, Hoddlesden",BB3 3LL,371481.000000,422266.000000,53.696049,-2.433386,Blackburn with Darwen
171140,Jumbles Sailing Club (Mail to other address),"Jumbles Sailing Club, Horrobin Lane, Edgworth",BL7 0HJ,373362.000000,414697.000000,53.628119,-2.404262,Blackburn with Darwen
171163,King Edward VII,"327 Haslingden Road, Blackburn",BB1 2NG,370659.000000,425767.000000,53.727469,-2.446182,Blackburn with Darwen
171166,King William Hotel,"245 Chapeltown Road, Edgworth",BL7 9AN,372972.000000,414412.000000,53.625537,-2.410133,Blackburn with Darwen
171189,Level One,"29-31 Market Street, Darwen",BB3 1PS,369170.000000,422254.000000,53.695809,-2.468398,Blackburn with Darwen
171197,Lion Hotel,"29 Wensley Road, Blackburn",BB2 1PX,367242.000000,427815.000000,53.745672,-2.498188,Blackburn with Darwen
171219,Longshaw Sports & Social Club,"Longshaw Unity Working Mens Club, Bryan Street, Blackburn",BB2 3PH,368118.000000,426668.000000,53.735409,-2.484787,Blackburn with Darwen
171220,Lord Raglan Hotel,"Lord Raglan Hotel, Kings Road, Blackburn",BB2 4PY,366753.000000,426014.000000,53.729463,-2.505408,Blackburn with Darwen
171386,Oakenhurst Farm Brewers Fayre,"Brewsters, Riversway Drive, Lower Darwen",BB3 0SN,368772.000000,424679.000000,53.717581,-2.474672,Blackburn with Darwen
171467,Prince Of Wales,"2 Quaker Lane, Darwen",BB3 0ES,369362.000000,422968.000000,53.702238,-2.465562,Blackburn with Darwen
171470,Punch Hotel,"Punch Hotel, 25 Chapels, Darwen",BB3 0EE,369447.000000,423133.000000,53.703726,-2.464291,Blackburn with Darwen
171476,Railway Hotel,"Railway Hotel, Pleasington Lane, Pleasington",BB2 5JE,364312.000000,426036.000000,53.729490,-2.542407,Blackburn with Darwen
171530,Sam's Bar,"4 Higher Church Street, Blackburn",BB2 1JG,368189.000000,428023.000000,53.747601,-2.483851,Blackburn with Darwen
171664,Sunbird,"2a The Circus, Darwen",BB3 1BT,369190.000000,422212.000000,53.695432,-2.468091,Blackburn with Darwen
171666,Sunnyhurst Hotel,"9 Sunnyhurst, Darwen",BB3 1JX,367985.000000,422453.000000,53.697526,-2.486366,Blackburn with Darwen
171738,The Old Function Room,"5-6 Watery Lane, Darwen",BB3 2ET,370067.000000,421028.000000,53.684842,-2.454695,Blackburn with Darwen
171749,The Spinners,"Spinners Arms, 253 Bolton Road, Darwen",BB3 2PG,369430.000000,421431.000000,53.688428,-2.46438,Blackburn with Darwen
171791,Uncle Jack's,"Uncle Jacks, Branch Road, Lower Darwen",BB3 0PQ,368566.000000,425115.000000,53.721487,-2.477838,Blackburn with Darwen
171891,Albert and the Lion,"The Albert And The Lion,  Bank Hey Street, Blackpool",FY1 4TQ,330999.000000,435902.000000,53.814800,-3.049473,Blackpool
172120,Brun Working Mens Club,"And Institute,  Brun Grove, Blackpool",FY1 6PG,332085.000000,434440.000000,53.801806,-3.032663,Blackpool
172131,Burlingtons,"The Burlington,  Lytham Road, Blackpool",FY4 1JE,331003.000000,433104.000000,53.789657,-3.048789,Blackpool
173138,Revolution,"35 Market Street, Blackpool",FY1 1EZ,330613.000000,436233.000000,53.817733,-3.055414,Blackpool
173165,Rose & Crown,"22-24 Corporation Street, Blackpool",FY1 1EJ,330727.000000,436230.000000,53.817721,-3.053682,Blackpool
173387,Talbot Club,"46 Milbourne Street, Blackpool",FY1 3LL,331356.000000,436509.000000,53.820312,-3.044192,Blackpool
173393,Tangerine Tavern (St Annes W M Club),"3-5 St Annes Road, Blackpool",FY4 2AN,331414.000000,434134.000000,53.798968,-3.042766,Blackpool
173556,Viva,"3 Church Street, Blackpool",FY1 1HJ,330684.000000,436163.000000,53.817113,-3.05432,Blackpool
49014,Bolsover Town Sports And Social Club,"Moor Lane, Bolsover, Chesterfield",S44 6EB,447742.000000,370360.000000,53.228144,-1.286303,Bolsover
49015,Bondhay Golf And Country Club,"Bondhay Lane, Whitwell Common, Worksop",S80 3EH,451116.000000,377452.000000,53.291583,-1.23463,Bolsover
49016,Boot And Shoe And Next Door Cafe Bistro,"4 High Street, Whitwell, Worksop",S80 4QU,452921.000000,376733.000000,53.284935,-1.207674,Bolsover
49131,Dusty Miller Inn,"Sheffield Road, Barlborough, Chesterfield",S43 4TW,446784.000000,377402.000000,53.291523,-1.29962,Bolsover
49141,Elm Tree Inn,"Station Road, Scarcliffe, Chesterfield",S44 6TG,449728.000000,368680.000000,53.212863,-1.256818,Bolsover
49206,Hodthorpe Working Men's Club,"147 Queens Road, Hodthorpe, Worksop",S80 4UP,454248.000000,376522.000000,53.282913,-1.187808,Bolsover
49213,Horse And Groom,"Mansfield Road, Scarcliffe, Chesterfield, Derbyshire",S44 6SU,449013.000000,368546.000000,53.211724,-1.267544,Bolsover
49259,Longwillow Sports And Social Club,"Main Street, Whaley Thorns, Mansfield",NG20 9HD,453218.000000,370870.000000,53.232209,-1.204198,Bolsover
49274,Mansfield And District Rifle And Pistol Club,"The Range, Batley Lane, Pleasley, Mansfield",NG19 7QL,449486.000000,363454.000000,53.165913,-1.261249,Bolsover
49338,Ours,"2 Elmton Road, Creswell, Worksop",S80 4HE,452599.000000,374390.000000,53.263908,-1.212875,Bolsover
49345,Palterton Miners Welfare,"Back Lane, Palterton, Chesterfield",S44 6UN,447536.000000,368436.000000,53.210870,-1.289675,Bolsover
49392,Royal Oak Inn,"High Street, Barlborough, Chesterfield",S43 4EU,447417.000000,377255.000000,53.290137,-1.290146,Bolsover
49413,Shirebrook Ex Servicemens Club,"Carter Lane, Shirebrook, Mansfield",NG20 8PE,452418.000000,367709.000000,53.203877,-1.2167,Bolsover
49470,The Black Diamond,"172 Elmton Road, Creswell, Worksop",S80 4DY,451880.000000,373964.000000,53.260150,-1.223738,Bolsover
49471,The Blue Bell,"5 Leamington Drive, South Normanton, Alfreton",DE55 2HX,444749.000000,356328.000000,53.102280,-1.333091,Bolsover
49475,The Castlewood Public House,"Carter Lane East, South Normanton, Alfreton",DE55 2EY,444750.000000,357246.000000,53.110531,-1.332948,Bolsover
49493,The Devonshire Arms,"137 Market Street, South Normanton, Alfreton",DE55 2AA,444076.000000,356566.000000,53.104475,-1.343109,Bolsover
49511,The Kings Inn,"23 King Street, Creswell, Worksop",S80 4ER,452584.000000,374419.000000,53.264170,-1.213095,Bolsover
49533,The Villager,"Main Street, South Normanton, Alfreton",DE55 2DH,444545.000000,356941.000000,53.107807,-1.336053,Bolsover
49535,The White Swan,"Market Place, Bolsover, Chesterfield",S44 6PH,447386.000000,370520.000000,53.229614,-1.291612,Bolsover
49536,The Woodman Public House,"Pattison Street, Shuttlewood, Chesterfield",S44 6QZ,446792.000000,372764.000000,53.249836,-1.30018,Bolsover
173753,Arkwrights Alehouse,"1 Valletts Lane, Bolton",BL1 6DT,370203.000000,410406.000000,53.589381,-2.451615,Bolton
173771,Astley Bridge Bowling Green Co Ltd,"Ivy Bank Road, Bolton",BL1 7JH,371383.000000,412182.000000,53.605409,-2.433953,Bolton
173773,Astley Bridge Cricket Club,"Moss Bank Way, Bolton",BL1 6PZ,370839.000000,411588.000000,53.600040,-2.442118,Bolton
173949,Bridge Inn,"121 Church Street, Horwich, Bolton",BL6 7BR,364076.000000,411544.000000,53.599223,-2.544303,Bolton
174104,Church Ward Conservative Club,"94 Castle Street, Bolton",BL2 1JL,372618.000000,408980.000000,53.576687,-2.415007,Bolton
174166,Court Yard Wine Bar,"141 Lee Lane, Horwich, Bolton",BL6 7AG,363736.000000,411788.000000,53.601393,-2.549468,Bolton
174180,Cross Guns,"390 Blackburn Road, Egerton, Bolton",BL7 9TR,370792.000000,415188.000000,53.632403,-2.443167,Bolton
174217,Darcy Lever Cricket & Sports,"Hacken Lane, Bolton",BL3 1SD,373445.000000,407966.000000,53.567625,-2.402431,Bolton
174280,Dub Tap,"179 Lee Lane, Horwich, Bolton",BL6 7JD,363606.000000,411850.000000,53.601941,-2.55144,Bolton
174330,F A Foods,"Farmers Arms, 357-359 Radcliffe Road, Bolton",BL3 1RU,373414.000000,408122.000000,53.569025,-2.402912,Bolton
174338,Farnworth and Kearsley Labour Club,"Longcauseway, Farnworth, Bolton",BL4 9BD,362707.000000,523502.000000,54.605301,-2.57884,Bolton
174380,Frame 3 Snooker,"Higher Swan Lane, Bolton",BL3 3BJ,370739.000000,407548.000000,53.563732,-2.443249,Bolton
174494,Hardy Hall,"51-53 Church Street, Little Lever, Bolton",BL3 1BL,375197.000000,407403.000000,53.562651,-2.375933,Bolton
174501,Harvester,"1 Arena Approach, Horwich, Bolton",BL6 6LB,364480.000000,409288.000000,53.578974,-2.53794,Bolton
174526,Henighans,"1043 Bury Road, Bolton",BL2 6PY,375134.000000,409290.000000,53.579599,-2.377035,Bolton
174546,Hollywood Road Social Club,"Hollywood Road, Bolton",BL1 6HP,369812.000000,410808.000000,53.592971,-2.457561,Bolton
174565,Horwich Liberal Reform Club,"5 Winter Hey Lane, Horwich, Bolton",BL6 7AD,363893.000000,411565.000000,53.599400,-2.54707,Bolton
174740,Lamb Hotel,"455 Blackburn Road, Bolton",BL1 8NN,371431.000000,411465.000000,53.598968,-2.433162,Bolton
174772,Little John,"184 Lever Street, Bolton",BL3 6NN,371758.000000,408043.000000,53.568228,-2.42791,Bolton
174776,Little Lever Cricket Club,"Victory Road, Little Lever, Bolton",BL3 1JB,375731.000000,407559.000000,53.564078,-2.367883,Bolton
174797,Lord Raglan,"384 Halliwell Road, Bolton",BL1 8AP,370898.000000,410877.000000,53.593653,-2.44116,Bolton
174908,Millstone,"12 Crown Street, Bolton",BL1 2RU,371797.000000,409352.000000,53.579987,-2.427439,Bolton
174927,Morris Dancers,"14 Sapling Road, Bolton",BL3 3QL,370131.000000,406908.000000,53.557936,-2.452367,Bolton
175036,Oasis Club,"104 Derby Street, Bolton",BL3 6HG,371161.000000,408447.000000,53.571818,-2.436961,Bolton
175038,Octagon Theatre Trust  Ltd,"Howell Croft South, Bolton",BL1 1SB,371590.000000,409056.000000,53.577324,-2.430539,Bolton
175114,Plodder Lane Conservative Club,"Plodder Lane, Farnworth, Bolton",BL4 0JP,372155.000000,405890.000000,53.548898,-2.421723,Bolton
175182,Railway Club (Bolton),"Green Lane, Bolton",BL3 2LY,372868.000000,407056.000000,53.559416,-2.411064,Bolton
175183,Railway Hotel,"4-6 Egerton Street, Farnworth, Bolton",BL4 7JZ,373470.000000,406622.000000,53.555546,-2.401939,Bolton
175234,Rose and Crown,"222 Bolton Road, Westhoughton, Bolton",BL5 3EE,366116.000000,406398.000000,53.553108,-2.512918,Bolton
175245,Royal British Legion,"38 Belmont Road, Bolton",BL1 7AG,371405.000000,411902.000000,53.602894,-2.433595,Bolton
175307,Seven Stars,"157 Lea Gate, Bolton",BL2 4BQ,373877.000000,412149.000000,53.605244,-2.39626,Bolton
175387,Sportsman,"254 Darwen Road, Bromley Cross, Bolton",BL7 9JG,372175.000000,413463.000000,53.616966,-2.422099,Bolton
175461,Stork tavern,"548 Halliwell Road, Bolton",BL1 8BP,370515.000000,411063.000000,53.595295,-2.446964,Bolton
175499,Surya Restaurant,"98 Derby Street, Bolton",BL3 6HG,371161.000000,408447.000000,53.571818,-2.436961,Bolton
175553,The Alma,"152 Bradshawgate, Bolton",BL2 1BA,371932.000000,408886.000000,53.575805,-2.425358,Bolton
175562,The Beer School,"88 Market Street, Westhoughton, Bolton",BL5 3AZ,365363.000000,405960.000000,53.549131,-2.524235,Bolton
175569,The Brinsop Arms,"584-592 Chorley Road, Westhoughton, Bolton",BL5 3NJ,363243.000000,408809.000000,53.574575,-2.556566,Bolton
175583,The Church Inn,"79-81 Market Street, Little Lever, Bolton",BL3 1HH,375487.000000,407330.000000,53.562008,-2.371549,Bolton
175584,The Clockface,"65 Old Hall Street, Kearsley, Bolton",BL4 8HJ,374234.000000,405344.000000,53.544097,-2.390301,Bolton
175663,The Post Office,"57-61 Bradshawgate, Bolton",BL1 1DR,371871.000000,409158.000000,53.578247,-2.426304,Bolton
175680,The Shots Bar & Grill,"55 Bradshawgate, Bolton",BL1 1DR,371871.000000,409158.000000,53.578247,-2.426304,Bolton
175799,Waggon and Horses,"170 Chorley Road, Westhoughton, Bolton",BL5 3PN,364848.000000,407494.000000,53.562866,-2.53218,Bolton
175849,Wilton Arms,"883-885 Belmont Road, Bolton",BL1 7BT,369956.000000,413448.000000,53.616708,-2.455641,Bolton
49681,Boston Social Pigeon Club,"Rasons Court, Boston",PE21 6TH,533092.000000,344165.000000,52.978307,-0.019211,Boston
49685,Boston Town Football Club,"Boston F C, Tattershall Road, Boston",PE21 9LR,531989.000000,345676.000000,52.992163,-0.035012,Boston
49691,Boston West Golf Centre,"Langrick Road, Boston",PE20 3QX,526618.000000,343740.000000,52.976064,-0.11574,Boston
49701,Bull & Dog,"Bull & Dog, Church View, Freiston",PE22 0LA,537509.000000,343881.000000,52.974650,0.046409,Boston
49770,Duke Of York,"7 Lincoln Lane, Boston",PE21 8RU,532466.000000,344116.000000,52.978030,-0.028548,Boston
49798,Five Bells,"Five Bells Inn, Church Road, Butterwick",PE22 0HT,538809.000000,344903.000000,52.983487,0.066193,Boston
49820,Great Northern,"Great Northern Hotel, 23 Station Street, Boston",PE21 8RL,532373.000000,344088.000000,52.977801,-0.029943,Boston
49925,Masonic Hall (Catering by Leanne),"Boston Masonic Hall, 3 Main Ridge West, Boston",PE21 6QQ,532974.000000,344142.000000,52.978138,-0.020976,Boston
49942,N F O A P A,"Pensioners House, Mitre Lane, Boston",PE21 6EB,532878.000000,344161.000000,52.978333,-0.022397,Boston
49978,Pig and Whistle,"Market Place, Boston",PE20 3LJ,523785.000000,340274.000000,52.945584,-0.159216,Boston
49981,Pilgrim Lounge,"The Pilgrim Lounge, Boston United F C, York Street, Boston",PE21 6JN,533240.000000,344073.000000,52.977452,-0.017046,Boston
49985,Pincushion Inn,"289 London Road, Wyberton",PE21 7DD,531543.000000,341242.000000,52.952428,-0.043452,Boston
49987,Pirana Nightclub,"5 Sibsey Lane, Boston",PE21 6HB,532895.000000,344026.000000,52.977106,-0.0222,Boston
50004,Queen of Spades Public House,"Wellington Road, Boston",PE21 0NX,534106.000000,343851.000000,52.975242,-0.004248,Boston
294628,Club Grand Bingo,"40 Poole Road, Bournemouth",BH4 9DW,407143.000000,91453.000000,50.722649,-1.900184,Bournemouth
294817,Fiveways,"423 Charminster Road, Bournemouth",BH8 9QY,409845.000000,93796.000000,50.743689,-1.86183,Bournemouth
294867,Goat & Tricycle,"27-29 West Hill Road, Bournemouth",BH2 5PF,408019.000000,91098.000000,50.719455,-1.887768,Bournemouth
294982,Inferno,"38 Holdenhurst Road, Bournemouth",BH8 8AD,409609.000000,91469.000000,50.722758,-1.865235,Bournemouth
295050,Kinson Conservative Club,"1394-1414 Wimborne Road, Bournemouth",BH10 7AR,407477.000000,96449.000000,50.767581,-1.895353,Bournemouth
295409,Pokesdown & Southbourne Ex-Servicemens Club,"21 Stamford Road, Bournemouth",BH6 5DR,413501.000000,92397.000000,50.731027,-1.810066,Bournemouth
295616,Southbourne Sports Club,"8 Dean's Road, Bournemouth",BH5 2DA,412873.000000,92046.000000,50.727902,-1.81899,Bournemouth
295733,Suttoners Sports and Social Club,"Kinson Manor, The Broadway, Bournemouth",BH10 7JA,407536.000000,96562.000000,50.768597,-1.8945,Bournemouth
295753,Talbot Rise Club,"264-266 Columbia Road, Bournemouth",BH10 4DR,406892.000000,94756.000000,50.752355,-1.903665,Bournemouth
295793,The Anvil,"15 Holdenhurst Road, Bournemouth",BH8 8EH,409552.000000,91470.000000,50.722768,-1.866043,Bournemouth
295851,The Firkin Shed (Micro pub),"279 Holdenhurst Road, Bournemouth",BH8 8BZ,410382.000000,92404.000000,50.731162,-1.854258,Bournemouth
295857,The George Tapps,"209-215 Old Christchurch Road, Bournemouth",BH1 1JZ,409418.000000,91426.000000,50.722375,-1.867942,Bournemouth
295865,The Grove Tavern,"27 Southbourne Grove, Bournemouth",BH6 3QS,412989.000000,91870.000000,50.726308,-1.817353,Bournemouth
295879,The Lions Head and Sound Circus,"140 Holdenhurst Road, Bournemouth",BH8 8AS,409958.000000,92025.000000,50.727761,-1.860276,Bournemouth
295924,The Smoking Outlaw,"1118 Wimborne Road, Bournemouth",BH10 7AA,409119.000000,95702.000000,50.760841,-1.872073,Bournemouth
295965,Toby Carvery,"Cooper Dean, Castle Lane East, Bournemouth",BH7 7DP,412426.000000,94214.000000,50.747399,-1.825237,Bournemouth
296034,Wallisdown Conservative Club,"8 Canford Road, Bournemouth",BH11 8SA,406410.000000,94305.000000,50.748314,-1.91052,Bournemouth
229976,Binfield Football Club,"Hill Farm Lane, Binfield, Bracknell",RG42 5QZ,485691.000000,172351.000000,51.443679,-0.768408,Bracknell Forest
229981,Binfield Social Club,"Binfield Club House, Forest Road, Binfield, Bracknell",RG42 4DU,483819.000000,170853.000000,51.430492,-0.795691,Bracknell Forest
230000,Bracknell Cricket Club,"Larges Lane, Bracknell",RG12 9AN,487458.000000,168943.000000,51.412773,-0.74383,Bracknell Forest
230097,Crowthorne Social Club,"Wellington Road, Crowthorne",RG45 7LD,484303.000000,163779.000000,51.366828,-0.790424,Bracknell Forest
230142,Empire / Club 8,"14 Market Street, Bracknell",RG12 1JG,486878.000000,169281.000000,51.415900,-0.752085,Bracknell Forest
230168,Fox And Hounds,"Hancombe Road, Sandhurst",GU47 8NP,483169.000000,162441.000000,51.354966,-0.807007,Bracknell Forest
230342,Napoleon's Retreat,"Wellington College, Dukes Ride, Crowthorne",RG45 7PU,483252.000000,163456.000000,51.364079,-0.805578,Bracknell Forest
230466,Squirrels,"North Street, Winkfield, Windsor",SL4 4TF,492637.000000,172894.000000,51.447468,-0.66835,Bracknell Forest
230533,The Cricketers,"Cricketers Lane, Warfield, Bracknell",RG42 6JT,489124.000000,171506.000000,51.435554,-0.719252,Bracknell Forest
230534,The Crown Wood,"Opladen Way, Bracknell",RG12 0PE,488040.000000,167193.000000,51.396951,-0.735897,Bracknell Forest
230589,The Victoria Arms,"Terrace Road North, Binfield, Bracknell",RG42 5JA,484225.000000,171330.000000,51.434720,-0.789739,Bracknell Forest
230590,The Village Inn,"21 Yorktown Road, Sandhurst",GU47 9DX,483435.000000,161540.000000,51.346828,-0.803399,Bracknell Forest
230591,The Wellington Arms,"203 Yorktown Road, Sandhurst",GU47 9BN,484308.000000,161431.000000,51.345719,-0.790893,Bracknell Forest
230592,The White Hart,"Church Road, Winkfield, Windsor",SL4 4SE,490326.000000,172317.000000,51.442645,-0.701744,Bracknell Forest
230593,The White Swan,"Swan Lane, Sandhurst",GU47 9BU,483675.000000,161385.000000,51.345399,-0.79999,Bracknell Forest
230594,The William Twigg,"Great Hollands Square, Bracknell",RG12 8UX,485602.000000,167427.000000,51.399419,-0.770876,Bracknell Forest
230615,Virgin Active,"Royal County Of Berkshire Racquet And Health Club, Nine Mile Ride, Bracknell",RG12 7PB,487286.000000,166059.000000,51.386874,-0.747011,Bracknell Forest
381894,Albert Hotel,"Bridge Street, Keighley",BD21 1AA,405915.000000,441009.000000,53.865272,-1.911525,Bradford
381932,Alma Hotel (bar),"127 Leeds Road, Shipley",BD18 1DF,415863.000000,437831.000000,53.836485,-1.760434,Bradford
381957,Andy's Club Grub,"Cullingworth And District Conservative Club, 21-23 Station Road, Cullingworth, Bingley",BD13 5HN,406625.000000,436840.000000,53.827784,-1.900832,Bradford
381960,Angel Hotel,"9 Northgate, Baildon",BD17 6LX,415512.000000,439708.000000,53.853365,-1.765674,Bradford
381973,Applegarth (Bar Only),"Banks Lane, Riddlesden, Keighley",BD20 5BN,407695.000000,442618.000000,53.879711,-1.884434,Bradford
382099,Bay Horse Inn,"Hebden Bridge Road, Oxenhope, Keighley",BD22 9LN,403167.000000,434834.000000,53.809778,-1.953388,Bradford
382188,Bocking Working Mens Club (bar),"119 Bocking, Cross Roads, Keighley",BD22 9AP,404746.000000,438007.000000,53.838293,-1.929362,Bradford
382234,Bradford Bridge Club,"8 Mornington Villas, Bradford",BD8 7HB,415577.000000,434305.000000,53.804811,-1.764957,Bradford
382263,Bradford Hotel,"157 Valley Road, Shipley",BD18 2DA,415014.000000,436731.000000,53.826632,-1.773388,Bradford
382303,Brown Cow Inn (Bar Only),"63 Town Gate, Wyke, Bradford",BD12 9JQ,415390.000000,426838.000000,53.737704,-1.768166,Bradford
382321,Burley Sports Club,"Grange Road, Burley In Wharfedale, Ilkley",LS29 7NF,416487.000000,446254.000000,53.912169,-1.750502,Bradford
382417,Caroline Street Social Club,"Caroline Street, Saltaire, Shipley",BD18 3JZ,413979.000000,437931.000000,53.837437,-1.789058,Bradford
382442,Central Division Sports & Social Club,"4-6 Clayton Lane, Little Horton, Bradford",BD5 0RA,416124.000000,431945.000000,53.783583,-1.756774,Bradford
382652,Cottingley W M C (Bar Only),"Hope Hill View, Cottingley, Bingley",BD16 1RJ,411061.000000,437266.000000,53.831539,-1.833423,Bradford
382674,Crossflatts Cricket Club,"Keighley Road, Bingley",BD16 2DX,409876.000000,440874.000000,53.863991,-1.851314,Bradford
382768,Delius Lived Next Door (Bar Only),"8-10 Claremont, Great Horton, Bradford",BD7 1BQ,415690.000000,432673.000000,53.790140,-1.763324,Bradford
382807,Dog And Gun (Bar Only),"142 St Enochs Road, Bradford",BD6 3BU,414573.000000,430383.000000,53.769589,-1.780386,Bradford
383016,Friendly Inn (Bar Only),"54 Main Street, Stanbury, Keighley",BD22 0HB,400923.000000,437051.000000,53.829721,-1.987445,Bradford
383050,Generous Pioneer,"2 Ilkley Road, Burley In Wharfedale, Ilkley",LS29 7HR,416107.000000,446772.000000,53.916837,-1.75626,Bradford
383052,George Hotel (bar),"1 Lockwood Street, Low Moor, Bradford",BD12 0LS,416402.000000,428331.000000,53.751092,-1.752746,Bradford
383064,Girlington Conservative Social Club,"1007 Thornton Road, Bradford",BD8 0PA,412634.000000,433172.000000,53.794707,-1.80969,Bradford
383104,Great Northern Hotel (Bar Only),"528 Thornton Road, Thornton, Bradford",BD13 3NH,409655.000000,432730.000000,53.790797,-1.854927,Bradford
383255,Hogs Head,"45 Haigh Hall Road, Bradford",BD10 9BA,418848.000000,437284.000000,53.831469,-1.715109,Bradford
383274,Holmewood Social Club,"Broadstone Way, Bradford",BD4 9DY,419179.000000,431212.000000,53.776892,-1.710455,Bradford
383337,Idle And Thackley Conservative (Bar Only),"Westfield Lane, Idle, Bradford",BD10 8PY,417568.000000,437948.000000,53.837491,-1.734519,Bradford
383340,Idle Cricket Club,"Cavendish Road, Thorpe Edge, Bradford",BD10 9LE,417909.000000,437383.000000,53.832401,-1.72937,Bradford
383352,Ilkley Cricket Club,"Middleton Avenue, Ilkley",LS29 0AA,411471.000000,448227.000000,53.930036,-1.826788,Bradford
383419,Jacobs Beer House,"Jacobs Well, Kent Street, Bradford",BD1 5RL,416327.000000,432736.000000,53.790686,-1.753652,Bradford
383648,Library Bar,"1 Glydegate, Bradford",BD5 0BQ,416070.000000,432767.000000,53.790973,-1.757551,Bradford
383649,Library Tap,"Main Street, Bingley",BD16 2HT,410758.000000,439115.000000,53.848155,-1.837963,Bradford
383681,Little Gem Pub Co,"94 Main Street, Bingley",BD16 2JH,410609.000000,439331.000000,53.850108,-1.840221,Bradford
383683,Little Horton Unity Club,"Spicer Street, Bradford",BD5 9BT,415493.000000,431254.000000,53.777392,-1.766385,Bradford
383708,Long Lee Cricket Club,"Thwaites Brow Road, Keighley",BD21 4SQ,407613.000000,440489.000000,53.860568,-1.885733,Bradford
383727,Lower Wyke Moravian Church,"Moravian Chapel, Chapel Fold, Lower Wyke, Bradford",BD12 9AE,415041.000000,425965.000000,53.729867,-1.773514,Bradford
383755,Made of Bradford (Bar Only),"21 Ivegate, Bradford",BD1 1SQ,416271.000000,433086.000000,53.793842,-1.754483,Bradford
383793,Manor House Inn,"42 Leeds Road, Eccleshill, Bradford",BD2 3AY,417943.000000,435303.000000,53.813705,-1.728974,Bradford
383999,Myrtle Grove,"141 Main Street, Bingley",BD16 1AJ,410817.000000,439005.000000,53.847174,-1.837055,Bradford
384049,New Variety Club,"New Variety Club, Russell Street, Keighley",BD21 2LA,405889.000000,441207.000000,53.867052,-1.911916,Bradford
384097,Oakworth Social Club (Bar Only),"Colne Road, Oakworth, Keighley",BD22 7HY,403379.000000,438814.000000,53.845557,-1.950127,Bradford
384127,Olicana Lodge,"Masonic Hall, 1 Cunliffe Road, Ilkley",LS29 9DZ,411493.000000,447760.000000,53.925847,-1.82647,Bradford
384221,Penningtons Octagon Live,"Octagon House, Bradford Road, Sandbeds, Keighley",BD20 5LY,409145.000000,441338.000000,53.868183,-1.862415,Bradford
384417,Red House Inn,"200-202 Barkerend Road, Bradford",BD3 9BH,417228.000000,433399.000000,53.796616,-1.739938,Bradford
384521,Royal Hotel,"26 Keighley Road, Bingley",BD16 2EZ,410238.000000,440638.000000,53.861863,-1.845817,Bradford
384673,Shipley Conservative Club Ltd,"78-82 Otley Road, Shipley",BD18 3SA,414907.000000,437453.000000,53.833124,-1.774979,Bradford
384685,Shoulder Of Mutton Inn,"22 Thwaites Bridge, Keighley",BD21 4NG,407523.000000,441361.000000,53.868407,-1.887081,Bradford
384691,Silsden Golf Club,"Brunthwaite Lane, Silsden",BD20 0NH,405447.000000,446170.000000,53.911654,-1.918567,Bradford
384708,Sir Titus Salt,"Unit b, Windsor Baths, Morley Street, Bradford",BD7 1AQ,416024.000000,432786.000000,53.791154,-1.758248,Bradford
384816,St Ives Golf Club - (Bar Only),"St Ives Estate, Keighley Road, Harden, Bingley",BD16 1AT,409264.000000,439009.000000,53.847239,-1.860674,Bradford
384873,Station Hotel (Bar),"434 Manchester Road, Bradford",BD5 7RA,416159.000000,431989.000000,53.783978,-1.75624,Bradford
384927,Sun Hill,"79 West Lane, Haworth, Keighley",BD22 8EL,402781.000000,437313.000000,53.832070,-1.959229,Bradford
384928,Sun Hotel,"124 Sunbridge Road, Bradford",BD1 2ND,415969.000000,433161.000000,53.794517,-1.759064,Bradford
384996,Tallullahs,"81 Bingley Road, Shipley",BD18 4SB,413732.000000,437685.000000,53.835242,-1.792822,Bradford
385059,The Barracks,"90-94 Lumb Lane, Bradford",BD8 7QZ,415728.000000,433789.000000,53.800169,-1.76269,Bradford
385095,The Brown Cow,"Ireland Bridge, Millgate, Bingley",BD16 2QX,410485.000000,439344.000000,53.850227,-1.842104,Bradford
385100,The Castle Hotel (bar),"Grattan Road, Bradford",BD1 2LU,416044.000000,433208.000000,53.794937,-1.757923,Bradford
385105,The City Gent,"40 North Parade, Bradford",BD1 3HZ,416136.000000,433478.000000,53.797361,-1.756512,Bradford
385106,The City Vaults,"33 Hustlergate, Bradford",BD1 1NS,416401.000000,433160.000000,53.794504,-1.752506,Bradford
385135,The Cricketers Arms,"Green Road, Baildon",BD17 7NE,414551.000000,438645.000000,53.843848,-1.780332,Bradford
385138,The Crown Inn,"136 Main Street, Addingham",LS29 0NS,407667.000000,449855.000000,53.944747,-1.884681,Bradford
385160,The Flappit,"Flappit Springs, Halifax Road, Bingley",BD21 5PU,405111.000000,436708.000000,53.826606,-1.923836,Bradford
385167,The Fox,"41 Briggate, Shipley",BD17 7BP,414936.000000,437631.000000,53.834723,-1.77453,Bradford
385188,The Golden Fleece,"38 Long Lane, Harden, Bingley",BD16 1HP,408486.000000,438316.000000,53.841015,-1.872519,Bradford
385211,The Harold Club (Bar Only),"Huddersfield Road, Bradford",BD12 0UD,415371.000000,428464.000000,53.752319,-1.768374,Bradford
385233,The Junction Pub,"Lane Side, Queensbury, Bradford",BD13 1NE,409749.000000,431219.000000,53.777215,-1.853547,Bradford
385248,The Lister Arms,"Units 14 And 15a, The Moors Shopping Centre, South Hawksworth Street, Ilkley",LS29 9LB,411548.000000,447733.000000,53.925604,-1.825634,Bradford
385263,The Malt,"Wilsden Road, Harden, Bingley",BD16 1BG,408893.000000,437637.000000,53.834906,-1.866353,Bradford
385284,The New Inn,"363 Thornton Road, Thornton, Bradford",BD13 3JX,409979.000000,432649.000000,53.790072,-1.850011,Bradford
385286,The New Tyke,"Thornton Road, Bradford",BD13 3DG,411249.000000,432820.000000,53.791575,-1.830728,Bradford
385289,The Nightingale,"36 Main Road, Steeton With Eastburn",BD20 7SN,401855.000000,444519.000000,53.896840,-1.973257,Bradford
